station_name,city,zip,latitude,longitude,ev_connector_types
Seattle-Tacoma International Airport - General Parking,Seattle,98188,47.443377,-122.296229,['J1772']
Avista Corp,Spokane,99252,47.673347,-117.388933,"['J1772', 'NEMA520']"
Steam Plant Parking,Spokane,99201,47.65579218,-117.4236637,['J1772']
BELLEVUE BELLEVUE CH 1,Bellevue,98004,47.614744,-122.193162,['J1772']
KING COUNTY DES ISSAQUAH P&R 2,Issaquah,98027,47.545324,-122.0195,['J1772']
King County - King County Van Distribution Center,Redmond,98052,47.675897,-122.091237,['J1772']
UWB CASCADIA CC NORTH LEVEL 3 N,Bothell,98011,47.761878,-122.191915,['J1772']
CITY OF REDMOND CITY HALL DUAL,Redmond,98052,47.679224,-122.12995,['J1772']
CITY OF REDMOND MOC #1 PUBLIC,Redmond,98052,47.672359,-122.099034,['J1772']
WILLOWS LODGE WILLOWS #2,Woodinville,98072,47.734211,-122.147041,['J1772']
Rairdon's Nissan - Auburn,Auburn,98002,47.33876,-122.22087,"['CHADEMO', 'J1772', 'J1772COMBO']"
Burien Nissan,Burien,98148,47.458152,-122.333513,"['CHADEMO', 'J1772']"
Olympia Nissan,Olympia,98502,47.030919,-122.930155,"['CHADEMO', 'J1772', 'J1772COMBO']"
Tacoma Nissan,Tacoma,98409,47.21973,-122.485672,"['CHADEMO', 'J1772', 'J1772COMBO']"
O'Brien Nissan,Walla Walla,99362,46.047279,-118.353882,['J1772']
KEY CENTER KEY CENTER 6,Bellevue,98004,47.616104,-122.19696,['J1772']
KRC SKYLINE SKYLINE #1,Bellevue,98004,47.61434,-122.194037,['J1772']
Caplan's Rainbow Parking,Seattle,98104,47.604115,-122.332907,['J1772']
CITY OF SEATAC CITY HALL 1,SeaTac,98188,47.434029,-122.273288,['J1772']
Puget Sound Energy,Tacoma,98409,47.22213,-122.478493,['J1772']
City of Tacoma - Municipal Building,Tacoma,98402,47.255854,-122.44172,['J1772']
BELLEVUE SBCC #2,Bellevue,98006,47.568886,-122.145268,['J1772']
VALLEY MED CTR MAIN LOT #5,Renton,98055,47.443255,-122.212445,['J1772']
City of Renton - City Shops,Renton,98056,47.483635,-122.170748,['J1772']
Campbell Nissan - Everett,Everett,98204,47.90272981640562,-122.2469883724914,['J1772']
Karmart Nissan,Burlington,98233,48.45009,-122.34423,"['CHADEMO', 'J1772COMBO']"
Bill Robertson Nissan,Pasco,99301,46.236757,-119.129685,['J1772']
Bill Korum's Puyallup Nissan,Puyallup,98371,47.207791,-122.294492,['J1772']
Younker Nissan,Renton,98058,47.448416,-122.218892,['J1772']
City of Seattle - Central Library,Seattle,98104,47.606684,-122.332664,['J1772']
City of Seattle - Muni Tower,Seattle,98124,47.604906,-122.330278,['J1772']
City of Seattle - Parking Enforcement Division,Seattle,98134,47.582934,-122.323106,['J1772']
City of Seattle - Seattle Center,Seattle,98109,47.622085,-122.347124,['J1772']
City of Seattle - Seattle City Light North Service Center,Seattle,98103,47.699613,-122.341922,['J1772']
City of Seattle - Seattle Water Ops,Seattle,98134,47.57952,-122.321401,['J1772']
City of Seattle - West Bridge,Seattle,98106,47.565149,-122.353024,['J1772']
Advantage Nissan,Bremerton,98312,47.562322,-122.684362,['J1772']
Alan Webb Nissan,Vancouver,98662,45.64775,-122.598185,['J1772']
Valley Nissan,Yakima,98901,46.590221,-120.500923,['J1772']
Valley Nissan,Yakima,98901,46.590221,-120.500923,['J1772']
Snohomish County - Evergreen Fairgrounds,Monroe,98272,47.868914,-121.987449,['J1772']
Puget Sound Energy,Seattle,98108,47.54527283,-122.3087234,['J1772']
KING COUNTY DES KSC STATION #1,Seattle,98104,47.598663,-122.331009,['J1772']
Evergreen Ford,Issaquah,98027,47.547047,-122.063633,['J1772']
Nikola Broadband,Sequim,98382,48.08536,-123.1135,['J1772']
King County - Roads Maintenance Facility,Renton,98056,47.4847291,-122.1774112,['J1772']
Mazama Country Inn,Mazama,98833,48.594482,-120.406494,"['J1772', 'NEMA1450']"
VIA6 VIA6-SOUTH,Seattle,98121,47.613883,-122.339405,['J1772']
800 FIFTH AVE STATION 2,Seattle,98104,47.605599,-122.330626,['J1772']
Campbell's Lake Chelan Resort,Chelan,98816,47.8399,-120.0199,"['J1772', 'NEMA520']"
Pine Near RV Park,Winthrop,98862,48.476543,-120.180796,['J1772']
Omak Inn,Omak,98841,48.421424,-119.503978,['J1772']
59er Diner,Leavenworth,98826,47.758434,-120.742416,['J1772']
PARKMETRO1 PARK METRO #1,Bellevue,98004,47.620793,-122.192469,['J1772']
VALLEY MED CTR MAIN LOT #8,Renton,98055,47.443123,-122.212538,['J1772']
Haselwood Chevrolet Buick GMC,Bremerton,98312,47.557801,-122.675335,['J1772']
Lakeside 24 Hour Fuel,Cougar,98616,46.051228,-122.301754,['J1772']
Kitsap Transit Harborside Garage,Bremerton,98337,47.56358,-122.62531,['J1772']
Mount Rainier National Park,Longmire,98397,46.761214,-122.040397,['J1772']
Mount Rainier National Park,Ashford,98304,46.755816,-122.120894,['J1772']
Semiahmoo Resort,Blaine,98230,48.989751,-122.773271,['J1772']
Best Western Plus - Heritage Inn,Bellingham,98226,48.783478,-122.484131,['J1772']
UDR TEN20 #1,Bellevue,98004,47.61984,-122.19603,['J1772']
City of Chelan,Chelan,98816,47.840838,-120.018402,['J1772']
LCC LCC H&S #1,Longview,98632,46.141922,-122.940192,['J1772']
UWMC UWMC #1,Bellevue,98004,47.638269,-122.191294,['J1772']
UWMC 4245 UWMC 4245 #1,Seattle,98105,47.658961,-122.3185,['J1772']
UWMC 4225 UWMC 4225 #1,Seattle,98105,47.658409,-122.318392,['J1772']
Town Nissan,East Wenatchee,98802,47.400716,-120.278842,"['CHADEMO', 'J1772']"
MAIN HOSPITAL SILVER PARKING,Kirkland,98034,47.716056,-122.179455,['J1772']
MAIN HOSPITAL DEYOUNG1,Kirkland,98034,47.714435,-122.179399,['J1772']
MAIN HOSPITAL BLUE PARKING,Kirkland,98034,47.714793,-122.176869,['J1772']
Leskovar Mitsubishi,Kennewick,99336,46.213233,-119.162367,['J1772']
Mellisoni Vineyard,Chelan,98816,47.83522282290976,-120.068983390213,['J1772']
Snoqualmie Casino,Issaquah,98065,47.519113,-121.841787,['J1772']
WCEH Wenatchee,Wenatchee,98801,47.427713,-120.312139,"['CHADEMO', 'J1772', 'J1772COMBO']"
WCEH Centralia,Centralia,98531,46.7252937,-122.9742834,"['CHADEMO', 'J1772', 'J1772COMBO']"
WCEH Bellingham,Bellingham,98225,48.731184,-122.4712335,"['CHADEMO', 'J1772', 'J1772COMBO']"
WCEH Castle Rock,Castle Rock,98511,46.2757149,-122.910486,"['CHADEMO', 'J1772', 'J1772COMBO']"
WCEH Burlington,Burlington,98233,48.4554794,-122.3407875,"['CHADEMO', 'J1772', 'J1772COMBO']"
WCEH Ridgefield,Ridgefield,98642,45.8176127,-122.683566,"['CHADEMO', 'J1772', 'J1772COMBO']"
WCEH Skykomish,Skykomish,98288,47.7111533,-121.360832,"['CHADEMO', 'J1772', 'J1772COMBO']"
Power Trip Energy Corp,Port Townsend,98368,48.093634,-122.813252,['J1772']
GreenPod Development,Port Townsend,98368,48.103061,-122.794143,['J1772']
Windermere Real Estate,Port Townsend,98368,48.113018,-122.760544,['J1772']
SIA W GARAGE F.1 #1,Spokane,99224,47.625092,-117.53956,['J1772']
MAIN HOSPITAL SILVER #2,Kirkland,98034,47.716066,-122.179613,['J1772']
WINSLOW WAY WINSLOW #1,Bainbridge Island,98110,47.624921,-122.51934,['J1772']
The Co-op Farm and Garden,Sequim,98382,48.079897,-123.098996,['J1772']
VISITOR GARAGE PEDESTAL UNIT,Tacoma,98402,47.252117,-122.437452,['J1772']
Banks Lake Brew and Bistro,Coulee City,99115,47.616684,-119.287843,['J1772']
VM CHARGERS VIRGINIA MASON2,Seattle,98101,47.609528,-122.326393,['J1772']
INSIGNIA 953 EV216,Seattle,98121,47.616552,-122.342727,['J1772']
UWB CASCADIA CC TRULY HOUSE #1,Bothell,98011,47.759501,-122.193075,['J1772']
UWB CASCADIA CC SOUTH L 3 N,Bothell,98011,47.757842,-122.190719,['J1772']
Best Western Plus - Tacoma Dome Hotel,Tacoma,98421,47.238785,-122.426722,['J1772']
ESSEX SAMMAMISH VIEW,Bellevue,98008,47.577051,-122.125164,['J1772']
MADISON GARAGE MADISON GARAGE2,Seattle,98104,47.610087,-122.322114,['J1772']
WCEH Tumwater,Tumwater,98501,46.993561,-122.907761,"['CHADEMO', 'J1772', 'J1772COMBO']"
WCEH Leavenworth,Leavenworth,98826,47.5955952,-120.6642262,"['CHADEMO', 'J1772', 'J1772COMBO']"
WCEH Sultan,Sultan,98294,47.8621458,-121.8166013,"['CHADEMO', 'J1772', 'J1772COMBO']"
WCEH Cle Elum,Cle Elum,98922,47.207769,-121.0193577,"['CHADEMO', 'J1772', 'J1772COMBO']"
WCEH Snoqualmie,Snoqualmie Pass,98068,47.4231982,-121.4126014,"['CHADEMO', 'J1772', 'J1772COMBO']"
Bedrooms & More,Seattle,98105,47.66159,-122.324877,['J1772']
UWB CASCADIA CC UW PLANT,Bothell,98011,47.757747,-122.191662,['J1772']
SAFECO PLAZA SAFECO PLAZA #1,Seattle,98154,47.606106,-122.333782,['J1772']
City of Tacoma - Fleet Operations,Tacoma,98409,47.225367,-122.47265,['J1772']
Lee Johnson Nissan of Kirkland,Kirkland,98034,47.707294,-122.174855,['J1772']
Lee Johnson Nissan of Kirkland,Kirkland,98034,47.707294,-122.174855,['J1772']
Washington Department of Transportation - Parking Garage,Olympia,98501,47.034344,-122.89857,['CHADEMO']
MI SCHOOLS NORTHWOOD #1,Mercer Island,98040,47.573641,-122.223648,['J1772']
TRANS SERVICES TERRELL,Pullman,99163,46.732394,-117.164374,['J1772']
TRANS SERVICES SCUE,Pullman,99163,46.729675,-117.161393,['J1772']
WASHINGTON ST LACONNER #1,La Conner,98257,48.391109,-122.496837,['J1772']
NBK Bremerton / N68436-B850A,Bremerton,98314,47.5501,-122.6401,['J1772']
NBK Bremerton / N68436-B850,Bremerton,98314,47.5501,-122.6401,['NEMA515']
Washington State University - Pullman Plant Materials Center,Pullman,99164,46.731746,-117.157928,['J1772']
TwispWorks,Twisp,98856,48.362102,-120.121376,['J1772']
Wellspring Spa at Mount Rainier,Ashford,98304,46.759919,-121.981984,['NEMA1450']
PUBLIC CHARGING ANGLE LAKE #2,SeaTac,98188,47.423319,-122.298723,['J1772']
PUBLIC CHARGING ANGLE LAKE #4,SeaTac,98198,47.42327,-122.298719,['J1772']
Town of Concrete - Park and Ride,Concrete,98237,48.537035,-121.758653,['J1772']
DUAL EV SOUTH 1,Seattle,98105,47.661471,-122.299298,['J1772']
KING COUNTY DES KSC STATION #5,Seattle,98104,47.599,-122.330804,['J1772']
BELLINGHAM CITY COMMERCIAL ST 2,Bellingham,98225,48.750857,-122.479518,['J1772']
TRANS SERVICES PACCAR,Pullman,99164,46.729734,-117.156333,['J1772']
LINC SQUARE EXP LSE P2 #2,Bellevue,98004,47.614294,-122.201255,['J1772']
LINC SQUARE EXP P5 1,Bellevue,98004,47.614098,-122.200729,['J1772']
Skagit General Store,Rockport,98283,48.6735,-121.244711,['J1772']
Lincoln County Museum,Davenport,99122,47.652922,-118.150361,['J1772']
Kitsap Transit-George’s Corner Park & Ride,Kingston,98346,47.812524,-122.540217,['J1772']
Kitsap Transit - Harper Church,Port Orchard,98366,47.504444,-122.516388,['J1772']
SAMMAMISH SAMM VILLAGE #1,Sammamish,98074,47.605953,-122.037391,['J1772']
THE SUMMIT P2,Bellevue,98004,47.613367,-122.194775,['J1772']
City of Tonasket - City Hall,Tonasket,98855,48.705586,-119.438406,['J1772']
ESSEX BELLCENTERE 01,Bellevue,98004,47.612468,-122.194308,['J1772']
SAMMAMISH SAM VILLAGE #2,Sammamish,98074,47.606215,-122.037426,['J1772']
Rocky Reach Dam Visitor Center,Wenatchee,98801,47.531819,-120.300871,['J1772']
City of Seattle - Sunny Jim,Seattle,98134,47.565076,-122.32205,['J1772']
City of Seattle - SeaPark Garage,Seattle,98124,47.604394,-122.328735,['J1772']
City of Seattle - Seattle Department of Transportation,Seattle,98106,47.520043,-122.344155,['J1772']
City of Seattle - North Precinct,Seattle,98133,47.702714,-122.334822,['J1772']
City of Seattle - South Precinct,Seattle,98108,47.538387,-122.293403,['J1772']
BELLEVUE DOWNTOWN PARK 2,Bellevue,98004,47.61309,-122.206569,['J1772']
SKAGIT STATION SS1,Mount Vernon,98273,48.418198,-122.334391,['J1772']
400 DEXTER AVE 400 DEXTER 1,Seattle,98109,47.622264,-122.342164,['J1772']
Bellevue Nissan,Bellevue,98007,47.58065,-122.14343,"['CHADEMO', 'J1772']"
UWB CASCADIA CC SOUTH LEVEL 3 W,Bothell,98011,47.757838,-122.190947,['J1772']
E_SOFI SOFI #1,Bellevue,98006,47.571386,-122.164808,['J1772']
BELLEVUE SQUARE BELL SQ NORTH 1,Bellevue,98004,47.616971,-122.203009,['J1772']
MERCER ISLAND MI COMMUN CTR,Mercer Island,98040,47.590057,-122.228541,['J1772']
COLLEGE HALL PARKING GARAGE,Spokane,99202,47.668201,-117.397214,['J1772']
EV RETAIL SOMA CP 1,Bellevue,98004,47.612706,-122.198654,['J1772']
PUBLIC WORKS 1 MARITIME PIER,Gig Harbor,98335,47.329291,-122.578979,['J1772']
DUAL EV SOUTH 2,Seattle,98105,47.661361,-122.298284,['J1772']
PUBLIC WORKS 1 GH FINHOLM 1,Gig Harbor,98332,47.339342,-122.590314,['J1772']
"Kitsap Transit - North Viking Poulsbo Park N Ride, WA",Poulsbo,98370,47.75946,-122.661047,['J1772']
530 Guard St,Friday Harbor,98250,48.536489,-123.021351,['J1772']
Avalon Business Park,Friday Harbor,98250,48.514655,-123.028884,['J1772']
Earthbox Inn and Spa,Friday Harbor,98250,48.532963,-123.019311,['J1772']
Friday Harbor Grand Bed and Breakfast,Friday Harbor,98250,48.532844,-123.021001,['J1772']
Odd Fellows Hall,Eastsound,98245,48.692979,-122.904798,['J1772']
Doe Bay Resort,Olga,98279,48.641279,-122.781015,['J1772']
Lopez Island Library,Lopez,98261,48.521863,-122.909571,['J1772']
Lopez Community Land Trust,Lopez,98261,48.530774,-122.914874,['J1772']
Thurston County Juvenile Court,Tumwater,98512,47.023179,-122.922337,['J1772']
Port of Poulsbo,Poulsbo,98370,47.736632,-122.647204,['J1772']
Haselwood Family YMCA Silverdale,Silverdale,98383,47.65330662706392,-122.6948141320863,['J1772']
Bellevue College - Garage,Bellevue,98007,47.585655,-122.147284,['J1772']
Legacy Salmon Creek Hospital,Vancouver,98686,45.7208083,-122.6467578,['J1772']
McLendon Hardware Tacoma,Tacoma,98406,47.25914,-122.514596,['J1772']
McLendon Hardware,Renton,98057,47.477362,-122.215347,['J1772']
Sumner School District - Parking Lot,Sumner,98390,47.203981,-122.237313,['J1772']
Lake Washington Institute of Technology,Kirkland,98034,47.704069,-122.167006,['J1772']
520 Pike Tower,Seattle,98101,47.611102,-122.334893,['J1772']
Bellevue College - Lot C7 Snoqualmie River Road,Bellevue,98005,47.58495,-122.15043,['J1772']
Lake Union Building,Seattle,98109,47.633992,-122.339684,['J1772']
VM CHARGERS VM BAINBRIDGE 1,Bainbridge Island,98110,47.637692,-122.513582,['J1772']
Multicare Health Systems,Covington,98042,47.359935,-122.103668,['J1772']
Highline Community College,Des Moines,98198,47.389529,-122.301609,['J1772']
BARKLEY VILLAGE REGAL CINEMA 2,Bellingham,98226,48.7707,-122.448772,['J1772']
Camaray Motel,Oroville,98844,48.938283,-119.436456,['J1772']
Smokiam Park,Soap Lake,98851,47.39125,-119.483647,['J1772']
Mountain View Lodge & Resort,Manson,98831,47.883847,-120.154608,['J1772']
Seattle-Tacoma International Airport - Terminal Direct Parking,Seattle,98188,47.443363,-122.296428,['J1772']
Bonneville Power Administration,Vancouver,98663,45.662257,-122.664489,['J1772']
National Park Service - Longmire Administration Building,Ashford,98304,46.750241,-121.812778,['J1772']
Environmental Protection Agency,Seattle,98101,47.609095,-122.332012,['J1772']
CITY LIGHT N BEACON HILL 1,Seattle,98144,47.579789,-122.3122,"['CHADEMO', 'J1772COMBO']"
UWB CASCADIA CC SOUTH LEVEL 4 S,Bothell,98011,47.757824,-122.190681,['J1772']
LINC SQUARE EXP LSS P2 106-107,Bellevue,98004,47.614503,-122.201196,['J1772']
LINC SQUARE EXP LSS P2 109-110,Bellevue,98004,47.614311,-122.201051,['J1772']
LINC SQUARE EXP LSS P2 100-101,Bellevue,98004,47.614752,-122.200829,['J1772']
LINC SQUARE EXP LSS P2 92-93,Bellevue,98004,47.614649,-122.200751,['J1772']
QBRC QBRC 1,Ocean Shores,98569,47.042642,-124.170682,['J1772']
ESSEX HIGHLANDS,Issaquah,98029,47.545075,-122.008911,['J1772']
BLACKRIVER JSH DUAL #1,Renton,98057,47.471546,-122.232002,['J1772']
BLACKRIVER BLACKRIVER #3,Renton,98057,47.474427,-122.233381,['J1772']
MTE EDMONDS SCHOOL,Mountlake Terrace,98043,47.798901,-122.3025,['J1772']
"Aberdeen, WA - Tesla Supercharger",Aberdeen,98520,46.976679,-123.813485,['TESLA']
Angel of the Winds Casino - Tesla Supercharger,Arlington,98223,48.212441,-122.183491,['TESLA']
Fairfield Inn & Suites Burlington - Tesla Supercharger,Burlington,98233,48.509743,-122.338681,['TESLA']
Centralia Outlets - Tesla Supercharger,Centralia,98531,46.729872,-122.977392,['TESLA']
Holiday Inn Express - Tesla Supercharger,Ellensburg,98926,46.976918,-120.54162,['TESLA']
Fred Meyer - Tesla Supercharger,Kennewick,99336,46.198035,-119.162687,['TESLA']
Fred Meyer - Tesla Supercharger,Lynnwood,98087,47.846714,-122.271389,['TESLA']
Best Western Plus Bronco Inn - Tesla Supercharger,Ritzville,99169,47.116294,-118.368328,['TESLA']
Holiday Inn Express & Suites - Tesla Supercharger,Sequim,98382,48.071064,-123.074581,['TESLA']
Fred Meyer Salmon Creek - Tesla Supercharger,Vancouver,98685,45.721613,-122.663762,['TESLA']
Dan's Food Market - Tesla Supercharger,Leavenworth,98826,47.598476,-120.656055,['TESLA']
Fort Lewis,Fort Lewis,98433,47.10579,-122.539,['J1772']
Olympic National Park - Sol Duc Hot Springs Resort,Port Angeles,98363,47.96937,-123.86338,['J1772']
Olympic National Park - Sol Duc Hot Springs Resort,Port Angeles,98363,47.96937,-123.86338,['J1772']
Starbucks Pasco,Pasco,99301,46.2418243,-119.1241826,"['CHADEMO', 'J1772', 'J1772COMBO']"
WA Trust Bank - Wandermere,Spokane,99218,47.769047,-117.401633,['J1772COMBO']
1101 WESTLAKE WESTLAKE 2,Seattle,98109,47.6289,-122.341536,['J1772']
Gull Wing Inn,Moclips,98562,47.24044,-124.216904,['J1772']
Washington State Department of Ecology - Public Parking Lot,Spokane,99205,47.700624,-117.425573,['J1772']
DC CORRIDOR SEATTLE MINI,Seattle,98125,47.713224,-122.298415,"['CHADEMO', 'J1772COMBO']"
EVROADWAY WA-PACSCI-L2-1,Seattle,98109,47.61906,-122.35235,['J1772']
BMGF P1 STATION 2,Seattle,98109,47.623424,-122.345872,['J1772']
Pacific Raceways,Kent,98042,47.320954,-122.13822,['TESLA']
Fred Meyer - Tesla Supercharger,Issaquah,98029,47.548081,-122.039955,['TESLA']
Bedrooms & More,Seattle,98105,47.661582,-122.32426,['J1772']
Guy Waring Guest House,Winthrop,98862,48.479357,-120.186033,['J1772']
Grand Mound Liquor Store,Rochester,98579,46.798453,-123.0123,['J1772']
KING COUNTY DES FACTORIA TRANSF,Bellevue,98005,47.582336,-122.158644,['J1772']
ALJOYA 1 EV CHARGER,Mercer Island,98040,47.588122,-122.237206,['J1772']
Bud Clary Chevrolet,Longview,98632,46.132245,-122.935179,['J1772COMBO']
Harvest Chevrolet,Yakima,98901,46.604239,-120.481583,"['J1772', 'J1772COMBO']"
Cascade Chevrolet,Wenatchee,98801,47.467463,-120.336918,"['J1772', 'J1772COMBO']"
Angel of the Winds Casino - Tesla Destination,Arlington,98223,48.214249,-122.184142,['TESLA']
Alexander's Lodge & Restaurant - Tesla Destination,Ashford,98304,46.751382,-121.937189,['TESLA']
Courtyard by Marriott Seattle Bellevue/Downtown - Tesla Destination,Bellevue,98004,47.617601,-122.193492,['TESLA']
Marriott Bellevue - Tesla Destination,Bellevue,98004,47.611844,-122.193618,"['J1772', 'TESLA']"
Marriott AC Bellevue - Tesla Destination,Bellevue,98004,47.612345,-122.197702,"['J1772', 'TESLA']"
Hilton Bellevue - Tesla Destination,Bellevue,98004,47.607592,-122.189582,['TESLA']
Hotel Bellwether - Tesla Destination,Bellingham,98225,48.754197,-122.496675,"['J1772', 'TESLA']"
Best Western Plus Heritage Inn - Tesla Destination,Bellingham,98226,48.783141,-122.484001,['TESLA']
Oxford Suites Bellingham - Tesla Destination,Bellingham,98226,48.788325,-122.48746,"['J1772', 'TESLA']"
Hamilton Cellars - Tesla Destination,Benton City,99320,46.296071,-119.451487,"['J1772', 'TESLA']"
Semiahmoo Resort & Spa - Tesla Destination,Blaine,98230,48.990486,-122.774447,['TESLA']
Hotel Cathlamet - Tesla Destination,Cathlamet,98612,46.202588,-123.384133,['TESLA']
Fielding Hills Winery - Tesla Destination,Chelan,98816,47.842476,-120.098099,['TESLA']
Suncadia Resort - Tesla Destination,Cle Elum,98922,47.207984,-121.019499,['TESLA']
The Four Points by Sheraton Seattle Airport South - Tesla Destination,Des Moines,98198,47.400629,-122.296834,"['J1772', 'TESLA']"
"Staybridge Suites Federal Way - Seattle South, an IHG Hotel - Tesla Destination",Federal Way,98003,47.314052,-122.300982,"['J1772', 'TESLA']"
Quillayute River Resort - Tesla Destination,Forks,98331,47.914774,-124.544249,['TESLA']
Island Athletic Club - Tesla Destination,Freeland,98249,48.010539,-122.534798,['TESLA']
Ocean5 - Tesla Destination,Gig Harbor,98335,47.305772,-122.579191,"['J1772', 'TESLA']"
Best Western Wesley Inn - Tesla Destination,Gig Harbor,98335,47.318391,-122.585326,['TESLA']
"Issaquah, WA - 12th Ave NW - Tesla Destination",Issaquah,98027,47.550744,-122.057467,"['J1772', 'TESLA']"
Badger Mountain Vineyard & Powers Winery - Tesla Destination,Kennewick,99338,46.213187,-119.286497,"['J1772', 'TESLA']"
Hampton Inn Kennewick at Southridge - Tesla Destination,Kennewick,99338,46.178019,-119.189427,['TESLA']
Saratoga Inn - Tesla Destination,Langley,98260,48.039607,-122.406131,"['J1772', 'TESLA']"
The Inn at Langley - Tesla Destination,Langley,98260,48.041105,-122.410772,"['J1772', 'TESLA']"
Mountain Springs Lodge - Tesla Destination,Leavenworth,98826,47.767473,-120.653187,['TESLA']
Sleeping Lady Mountain Resort - Tesla Destination,Leavenworth,98826,47.551769,-120.680327,"['J1772', 'TESLA']"
Alta Cellars - Tesla Destination,Manson,98831,47.884887,-120.156959,['TESLA']
Hard Row to Hoe Vineyards - Tesla Destination,Manson,98831,47.896557,-120.132386,['TESLA']
Moonstone Beach Motel - Tesla Destination,Moclips,98562,47.240392,-124.217215,['TESLA']
Fairfield Inn & Suites by Marriott Moses Lake - Tesla Destination,Moses Lake,98837,47.10335,-119.251036,['TESLA']
Adytum Sanctuary - Tesla Destination,Mossyrock,98564,46.545331,-122.508967,"['J1772', 'TESLA']"
Hobuck Beach  Resort - Tesla Destination,Neah Bay,98357,48.340723,-124.662924,['TESLA']
Hobuck Beach Resort  RV Camping - Tesla Destination,Neah Bay,98357,48.333479,-124.659368,['TESLA']
Swantown Inn & Spa - Tesla Destination,Olympia,98501,47.03909,-122.882327,"['J1772', 'TESLA']"
Hotel RL by Red Lion - Tesla Destination,Olympia,98502,47.027278,-122.912415,"['J1772', 'TESLA']"
Veranda Beach Resort - Tesla Destination,Oroville,98844,48.987053,-119.425912,"['J1772', 'TESLA']"
Red Lion Hotel Pasco - Tesla Destination,Pasco,99301,46.250235,-119.116144,"['J1772', 'TESLA']"
Camaraderie Cellars - Tesla Destination,Port Angeles,98363,48.101579,-123.477119,"['J1772', 'TESLA']"
Colette's Bed and Breakfast - Tesla Destination,Port Angeles,98362,48.114921,-123.268398,['TESLA']
"George Washington Inn, a Select Registry Property - Tesla Destination",Port Angeles,98362,48.116414,-123.255357,"['J1772', 'TESLA']"
Holiday Inn Express Pullman - Tesla Destination,Pullman,99163,46.715837,-117.166626,"['J1772', 'TESLA']"
Hampton Inn and Suites Puyallup - Tesla Destination,Puyallup,98371,47.17669,-122.2931,['TESLA']
Cave B Estate Winery & Resort - Tesla Destination,Quincy,98848,47.098792,-119.996204,"['J1772', 'TESLA']"
Seattle Marriott Redmond - Tesla Destination,Redmond,98052,47.671225,-122.122192,"['J1772', 'TESLA']"
Homewood Suites Richland - Tesla Destination,Richland,99352,46.281294,-119.273452,"['J1772', 'TESLA']"
Hampton Inn Richland/Tri-Cities - Tesla Destination,Richland,99352,46.271849,-119.269167,"['J1772', 'TESLA']"
Thompson Seattle - Tesla Destination,Seattle,98101,47.610335,-122.341261,"['J1772', 'TESLA']"
Hotel 1000 - Tesla Destination,Seattle,98104,47.604904,-122.336189,"['J1772', 'TESLA']"
Motif Seattle - Tesla Destination,Seattle,98101,47.610166,-122.335179,"['J1772', 'TESLA']"
Hotel Theodore - Tesla Destination,Seattle,98101,47.612347,-122.334168,['TESLA']
Cedarbrook Lodge - Tesla Destination,Seattle,98188,47.437313,-122.287623,"['J1772', 'TESLA']"
Seattle Marriott Waterfront - Tesla Destination,Seattle,98121,47.610845,-122.347258,"['J1772', 'TESLA']"
Bedrooms & More - Tesla Destination,Seattle,98105,47.661523,-122.324913,['TESLA']
400 Fairview - Tesla Destination,Seattle,98109,47.622544,-122.333913,"['J1772', 'TESLA']"
Fairmont Olympic Hotel - Seattle - Tesla Destination,Seattle,98101,47.608197,-122.334028,"['J1772', 'TESLA']"
Residence Inn by Marriott Seattle University Distric - Tesla Destination,Seattle,98105,47.661869,-122.315415,['TESLA']
Hampton Inn and Suites Seattle-Downtown - Tesla Destination,Seattle,98109,47.625675,-122.346886,['TESLA']
Four Points by Sheraton Downtown Seattle Center - Tesla Destination,Seattle,98109,47.625378,-122.344596,['TESLA']
Hotel Max - Tesla Destination,Seattle,98101,47.614141,-122.336357,['TESLA']
Shafer Baillie Mansion Bed & Breakfast - Tesla Destination,Seattle,98112,47.627047,-122.314961,['TESLA']
Four Seasons Hotel Seattle - Tesla Destination,Seattle,98101,47.607651,-122.339418,['TESLA']
Shelburne Inn Restaurant & Pub - Tesla Destination,Seaview,98644,46.334855,-124.055074,"['J1772', 'TESLA']"
Lost Mountain Lodge - Tesla Destination,Sequim,98382,48.06217,-123.168319,['TESLA']
GreenHouse Inn by the Bay - Tesla Destination,Sequim,98382,48.149618,-123.153648,['TESLA']
Snoqualmie Casino - Tesla Destination,Snoqualmie,98065,47.51865,-121.841773,['TESLA']
The Davenport Hotel - Tesla Destination,Spokane,99201,47.656578,-117.424414,['TESLA']
The Davenport Tower - Tesla Destination,Spokane,99201,47.656306,-117.423487,['TESLA']
Oxford Suites Spokane - Tesla Destination,Spokane,99201,47.663559,-117.412422,"['J1772', 'TESLA']"
Hampton Inn Airport Spokane - Tesla Destination,Spokane,99224,47.63666,-117.477532,"['J1772', 'TESLA']"
DoubleTree by Hilton Spokane City Center - Tesla Destination,Spokane,99201,47.66075,-117.414533,"['J1772', 'TESLA']"
The Davenport Grand Hotel - Tesla Destination,Spokane,99201,47.659917,-117.417273,['TESLA']
The Hotel Lusso - Tesla Destination,Spokane,99201,47.657247,-117.423946,['TESLA']
Hilton Garden Inn Spokane Airport - Tesla Destination,Spokane,99224,47.642631,-117.537533,"['J1772', 'TESLA']"
Oxford Suites Spokane Valley - Tesla Destination,Spokane Valley,99216,47.673676,-117.201827,"['J1772', 'TESLA']"
Skamania Lodge - Tesla Destination,Stevenson,98648,45.685622,-121.905244,"['J1772', 'TESLA']"
Hotel Murano - Tesla Destination,Tacoma,98402,47.250577,-122.439947,"['J1772', 'TESLA']"
Best Western Plus Tacoma Dome Hotel - Tesla Destination,Tacoma,98421,47.23853,-122.427213,['TESLA']
Alderbrook Resort & Spa - Tesla Destination,Union,98592,47.347184,-123.06764,"['J1772', 'TESLA']"
Heathman Lodge - Tesla Destination,Vancouver,98662,45.653804,-122.591975,"['J1772', 'TESLA']"
Dunham Wine Cellars - Tesla Destination,Walla Walla,99362,46.089019,-118.278234,['TESLA']
Pepper Bridge Winery - Tesla Destination,Walla Walla,99362,47.734002,-122.141347,"['J1772', 'TESLA']"
Inn at Abeja - Tesla Destination,Walla Walla,99362,46.088478,-118.227154,['TESLA']
Amavi Cellars - Tesla Destination,Walla Walla,99362,46.016223,-118.38607,"['J1772', 'TESLA']"
Marcus Whitman Hotel - Tesla Destination,Walla Walla,99362,46.067913,-118.340899,"['J1772', 'TESLA']"
Corvus Cellars - Tesla Destination,Walla Walla,99362,46.092016,-118.271808,['TESLA']
Warm Springs Inn & Winery - Tesla Destination,Wenatchee,98801,47.476001,-120.376514,['TESLA']
Cranberry Road Winery - Tesla Destination,Westport,98595,46.859479,-124.108594,['TESLA']
Willows Lodge - Tesla Destination,Woodinville,98072,47.732864,-122.147196,['TESLA']
Holiday Inn Downtown Yakima - Tesla Destination,Yakima,98901,46.604039,-120.494574,['TESLA']
Cle Elum Business Park - Tesla Supercharger,Cle Elum,98922,47.189262,-120.902714,['TESLA']
Bellevue City Hall,Bellevue,98004,47.614293,-122.192294,['J1772']
ALLEN INSTITUTE SOUTH,Seattle,98109,47.625077,-122.339032,['J1772']
PACIFIC LUTH U STATION 3,Tacoma,98447,47.145098,-122.438741,['J1772']
PACIFIC LUTH U STATION 2,Tacoma,98447,47.145084,-122.438862,['J1772']
SIA ECO 3,Spokane,99224,47.630363,-117.538616,['J1772']
T-MOBILE PARK GRIFFEY,Seattle,98134,47.589593,-122.332945,['J1772']
"Walmart 2539 (Spokane Valley, WA)",Spokane Valley,99037,47.66565,-117.19014,"['CHADEMO', 'J1772COMBO']"
North Bend Premium Outlets,North Bend,98045,47.49129,-121.79356,"['CHADEMO', 'J1772COMBO']"
Walmart 2947 Vancouver,Vancouver,98665,45.68739,-122.66091,"['CHADEMO', 'J1772COMBO']"
Naval Facilities Engineering Command - Naval Air Station Whidbey Island - B103,Oak Harbor,98278,48.343208,-122.674995,['J1772']
Naval Facilities Engineering Command - Bangor Trident Base - Building 1100,Silverdale,98315,47.658,-122.712,['NEMA520']
Naval Facilities Engineering Command - Bangor Trident Base - Building 1100,Silverdale,98315,47.658,-122.712,['J1772']
Naval Facilities Engineering Command - Bangor Trident Base - Building 1101,Silverdale,98315,47.658,-122.712,['NEMA520']
Naval Facilities Engineering Command - Bangor Trident Base - Building 1101,Silverdale,98315,47.658,-122.712,['J1772']
Naval Facilities Engineering Command - Bangor Trident Base - Building 7000,Silverdale,98315,47.658,-122.712,['NEMA520']
Naval Facilities Engineering Command - Bangor Trident Base - Building T51 2,Silverdale,98315,47.658,-122.712,['NEMA520']
Naval Facilities Engineering Command - Bangor Trident Base - Building T51 2,Silverdale,98315,47.658,-122.712,['J1772']
Naval Facilities Engineering Command - Bangor Trident Base - T-75,Silverdale,98315,47.658,-122.712,['NEMA520']
Naval Facilities Engineering Command - Bangor Trident Base - T-75,Silverdale,98315,47.658,-122.712,['J1772']
Naval Facilities Engineering Command - Naval Base Kitsap - Building 427,Silverdale,98315,47.563229,-122.646326,"['J1772', 'NEMA520']"
Naval Facilities Engineering Command - Port Hadlock-Irondale - 151,Port Hadlock,98339,48.0553,-122.6957,"['J1772', 'NEMA520']"
"Naval Facilities Engineering Command - Naval Station Everett - B2134-1,2,3,4,5,6",Everett,98207,47.993164,-122.221138,['J1772']
"Naval Facilities Engineering Command - Naval Station Everett B2003-1,2",Everett,98207,47.992104,-122.214104,['J1772']
Naval Facilities Engineering Command - Naval Sea Systems Command,Keyport,98345,47.70251,-122.62316,['NEMA520']
Naval Facilities Engineering Command - Naval Sea Systems Command,Keyport,98345,47.70224,-122.624811,['NEMA520']
3rd Street Parking,Yakima,98901,46.603762,-120.503347,['J1772']
SKAGITYMCA ONE,Mount Vernon,98273,48.443205,-122.316279,['J1772']
Fred Meyer - Tesla Supercharger,Monroe,98272,47.862572,-121.976585,['TESLA']
Blue Mountain Station - Tesla Destination,Dayton,99328,46.31017,-117.99763,"['J1772', 'TESLA']"
Washington Athletic Club Garage - Tesla Destination,Seattle,98101,47.609629,-122.333133,"['J1772', 'TESLA']"
Hotel Interurban - Tesla Destination,Tukwila,98188,47.457152,-122.251628,['TESLA']
Patterson Cellars - Tesla Destination,Woodinville,98072,47.769459,-122.151217,['TESLA']
LINCOLN SQUARE LS NORTH DUAL 4,Bellevue,98004,47.617024,-122.201104,['J1772']
188 BLAINE ATRIUM4,Seattle,98102,47.635213,-122.325845,['J1772']
188 BLAINE ATRIUM3,Seattle,98102,47.635119,-122.325866,['J1772']
BELLEVUE PLACE BELL PLACE #2,Bellevue,98004,47.618421,-122.20129,['J1772']
BELLEVUE SQUARE BELL SQ WEST #4,Bellevue,98004,47.615943,-122.205532,['J1772']
BELLEVUE SQUARE BELL SQ WEST #3,Bellevue,98004,47.615991,-122.205533,['J1772']
"Walmart 2596 - Mount Vernon, WA",Mount Vernon,98273,48.44239,-122.34421,['J1772COMBO']
Lake Quinault Lodge,Quinault,98575,47.465555,-123.850735,['J1772']
"Target T2290 - Renton, WA",Renton,98057,47.49721,-122.19924,"['J1772', 'J1772COMBO']"
Verizon - Bellevue,Bellevue,98008,47.579872,-122.135431,['J1772']
"Target T0338 - Lynnwood, WA",Lynnwood,98037,47.83199,-122.26733,['J1772COMBO']
"Walmart 3531 - Lacey, WA",Lacey,98516,47.05966,-122.77201,"['CHADEMO', 'J1772COMBO']"
VALLEY MED CTR NE GARAGE #4,Renton,98055,47.444636,-122.21277,['J1772']
VALLEY MED CTR NE GARAGE #2,Renton,98055,47.444881,-122.212781,['J1772']
"Walmart 5073 - Covington, WA",Covington,98042,47.36029,-122.10773,"['CHADEMO', 'J1772', 'J1772COMBO']"
Seattle Premium Outlets,Tulalip,98271,48.09546,-122.1869,['J1772COMBO']
Three Rivers Mall,Kelso,98626,46.13988,-122.90126,['J1772COMBO']
"Walmart 4137 - Tacoma, WA",Tacoma,98405,47.23947,-122.48025,"['J1772', 'J1772COMBO']"
"Walmart 2269 - Yakima, WA",Yakima,98901,46.60252,-120.47924,"['CHADEMO', 'J1772COMBO']"
LAKEVIEW L&P 1 LLP 1,Lakewood,98499,47.153199,-122.504023,['J1772']
VIDA APARTMENTS VIDA 1,Seattle,98115,47.678055,-122.314119,['J1772']
COLLEGE HALL MUSIC HALL,Spokane,99202,47.668051,-117.4063,['J1772']
Avista - Gonzaga School of Law DCFC,Spokane,99202,47.66355,-117.39822,['J1772COMBO']
"Walmart 3053 - Everett, WA",Everett,98208,47.91349,-122.21331,"['CHADEMO', 'J1772COMBO']"
Cow Creek Mercantile,Ritzville,99169,47.11948,-118.36271,"['CHADEMO', 'J1772COMBO']"
"Walmart 5462 - Vancouver, WA",Vancouver,98683,45.61776,-122.47814,"['J1772', 'J1772COMBO']"
"Target T1331 - Lake Stevens, WA",Lake Stevens,98258,47.99823,-122.10064,"['J1772', 'J1772COMBO']"
Simon Northgate Mall,Seattle,98125,47.70846,-122.32489,"['J1772', 'J1772COMBO']"
"Target T0627 - Tukwila, WA",Tukwila,98188,47.45571,-122.25738,['J1772COMBO']
"Target T0996 - Issaquah, WA",Issaquah,98027,47.54187,-122.05203,"['CHADEMO', 'J1772', 'J1772COMBO']"
UDR CHARGER 4,Bellevue,98004,47.618696,-122.191787,['J1772']
KW RADIUS RADIUS 1,Seattle,98109,47.622575,-122.335481,['J1772']
Ridgewood Corporate Square Building F,Bellevue,98005,47.611815,-122.178134,['J1772']
Ridgewood Corporate Square Building C,Bellevue,98005,47.612834,-122.178704,['J1772']
Bella Tess Apartments,Spokane Valley,99016,47.670893,-117.176698,['J1772']
Wingate By Wyndham Spokane,Spokane,99224,47.629619,-117.535903,['J1772']
"Walmart 5628 - Monroe, WA",Monroe,98272,47.86516,-121.97318,"['CHADEMO', 'J1772', 'J1772COMBO']"
Island Hospital Behind M.O.B. Building,Anacortes,98221,48.5006578,-122.6159562,['J1772']
Valley Supply - Woodinville,Woodinville,98072,47.8045651,-122.1205486,['J1772']
Monte Villa,Bothell,98021,47.776781,-122.181535,['J1772']
Public Safety #3,Edmonds,98020,47.8124532,-122.3758246,['J1772']
City Park #1,Edmonds,98020,47.8051107,-122.3813841,['J1772']
Whitman College,Walla Walla,99362,46.0705799,-118.3306351,['J1772']
Swedish Medical Center Issaquah Campus,Issaquah,98027,47.536237,-122.0220539,['J1772']
Everest / Starvue,Bellevue,98004,47.6141795,-122.199362,['J1772']
531614 Sunset Corporate Campus,Bellevue,98005,47.5806355,-122.1564536,['J1772']
The Commons at Ballard,Seattle,98107,47.6699634,-122.3847489,['J1772']
Amelia/UrbanSea LLC.,Seattle,98109,47.6233435,-122.334684,['J1772']
Troy Block,Seattle,98109,47.6211672,-122.3354501,['J1772']
Hill 7 Station,Seattle,98101,47.6164918,-122.3324879,['J1772']
531628  2201 Westlake,Seattle,98109,47.61809006,-122.33892,['J1772']
531622  818 Stewart Street Holdco LLC,Seattle,98101,47.6156458,-122.3350555,['J1772']
818 Stewart Street Holdco LLC,Seattle,98101,47.6156458,-122.3350555,['J1772']
531604  600 Broadway,Seattle,98122,47.6078691,-122.3196562,['J1772']
1201 Third,Seattle,98101,47.6072826,-122.3360929,['J1772']
Second and Seneca Tower,Seattle,98101,47.6060061,-122.336716,['J1772']
Union Station Parking Garage (#USPG),Seattle,98134,47.5975078,-122.328595,['J1772']
Slalom Hawk Tower,Seattle,98104,47.5980919,-122.3309701,['J1772']
531610 Stadium Innovation Center,Seattle,98134,47.5892477,-122.3358112,['J1772']
Four Lakes Apartments,Auburn,98092,47.24745539,-122.200549,['J1772']
Point Ruston - Main Street,Tacoma,98407,47.298158744057,-122.50341835087,['J1772']
531617  Court C Parking Level - Charging Stations,Tacoma,98402,47.2515929,-122.4407988,['J1772']
Steilacoom EV Station,Steilacoom,98388,47.1727264,-122.5984377,['J1772']
DuPont Grocery Inc.,DuPont,98327,47.093942,-122.6260623,['J1772']
Nisqually Red Wind Casino,Olympia,98513,47.0002897,-122.6682861,['J1772']
Adrift Hotel,Long Beach,98631,46.3455914,-124.060608,['J1772']
BSD501 SEHOME HIGH #1,Bellingham,98225,48.727512,-122.48124,['J1772']
TRANS SERVICES DANA WEST,Pullman,99163,46.730066,-117.169086,['J1772']
"Fred Meyer 457 - Bothell, WA",Bothell,98021,47.80832,-122.20678,"['J1772', 'J1772COMBO']"
Union Square - Tesla Supercharger,Seattle,98101,47.610024,-122.332078,['TESLA']
Yakima Garage,Tacoma,98403,47.2662577,-122.4617665,['J1772']
Hilton Garden Inn Bellevue,Bellevue,98004,47.6188924,-122.1969419,['J1772']
CITY LIGHT SOUTH SERVICE 1,Seattle,98134,47.57121,-122.328762,"['CHADEMO', 'J1772COMBO']"
DUAL EV STATION 5,Seattle,98105,47.663902,-122.300245,['J1772']
The Outlet Collection - Tesla Supercharger,Auburn,98001,47.29799,-122.248532,['TESLA']
TA Petro - Tesla Supercharger,North Bend,98045,47.468033,-121.716442,['TESLA']
THURSTON COUNTY COURTHOUSE 1,Olympia,98502,47.028924,-122.913101,['J1772']
CCB CCB 1,Bellevue,98004,47.61479,-122.195543,['J1772']
"Windermere, Camano Island - Tesla Destination",Camano,98282,48.240744,-122.455384,['J1772']
"Seattle, WA - Union Street (Wall Connector) - Tesla Destination",Seattle,98101,47.610142,-122.331887,"['J1772', 'TESLA']"
Freehand Cellars - Tesla Destination,Wapato,98951,46.495156,-120.420633,['TESLA']
Doubleback Winery - Tesla Destination,Walla Walla,99362,46.014123,-118.310165,['TESLA']
Majestic Inn & Spa - Tesla Destination,Anacortes,98221,48.51854,-122.61215,['TESLA']
Whitman College - Tesla Destination,Walla Walla,99362,46.06843,-118.330297,['TESLA']
A Room With a View - Tesla Destination,Walla Walla,99362,46.022244,-118.410638,['TESLA']
TA Petro - Tesla Supercharger,Spokane,99224,47.591,-117.56193,['TESLA']
Emerson Apartments,Kirkland,98034,47.711826,-122.194719,['J1772']
VASHON TWAY THRIFTWAY #1,Vashon,98070,47.448013,-122.45897,['J1772']
Highland Village Apartments,Bellevue,98007,47.616737,-122.146188,['J1772']
Forks Community Hospital,Forks,98331,47.946567294707,-124.39440425424,['J1772']
Lep Re Kon Harvest Foods - Tesla Supercharger,Moses Lake,98837,47.103514,-119.310208,"['J1772COMBO', 'TESLA']"
Port of Seattle - Shilshole Bay Marina North Lot,Seattle,98117,47.68080494,-122.4048611,['J1772']
META_REDMOND 60 ACRES,Redmond,98052,47.704831,-122.154418,['J1772']
Birch Bay Square - Tesla Supercharger,Blaine,98230,48.937845,-122.667679,['TESLA']
CAPITAL GATEWAY STATION 7,Olympia,98501,47.035837,-122.894963,['J1772']
BELLEVUE X-ROADS PARK 2,Bellevue,98008,47.618278,-122.122649,['J1772']
PORT OF OLYMPIA EAST,Olympia,98501,47.050914,-122.902502,['J1772']
CAPITAL GATEWAY STATION 5,Olympia,98501,47.035839,-122.895096,['J1772']
Pilot Travel Center - Tesla Supercharger,Tumwater,98512,46.952938,-122.935249,['TESLA']
Vancouver Mall - Tesla Supercharger,Vancouver,98662,45.659583,-122.583536,['TESLA']
Office Park,Olympia,98502,47.02759,-122.920589,['J1772']
Dew Drop Inn - Tesla Supercharger,Forks,98331,47.942921,-124.385236,"['J1772COMBO', 'TESLA']"
"BOA 5-119 Kent, WA",Kent,98032,47.3833,-122.23618,"['J1772', 'J1772COMBO']"
531611  Amazon Phase VI - Bigness,Seattle,98109,47.6241877,-122.3386584,['J1772']
Bigness,Seattle,98109,47.6241877,-122.3386584,['J1772']
531618  Sidneysea LLC - Brazil,Seattle,98109,47.6228746,-122.3394194,['J1772']
Apollo Eight LLC,Seattle,98104,47.6039634,-122.3241159,['J1772']
STCU Airway Heights,Airway Heights,99001,47.642531,-117.561399,['J1772']
Sunwest Automotive Engine Inc,Medical Lake,99022,47.571612,-117.681838,['J1772']
CON PL PA WASHBAY,Seattle,98121,47.6122,-122.345117,['J1772']
BELLEVUE X-ROADS CC,Bellevue,98008,47.619103,-122.127103,['J1772']
BELLEVUE X-ROADS PARK 1,Bellevue,98008,47.618255,-122.122606,['J1772']
Best Western - Wesley Inn & Suites,Gig Harbor,98335,47.318046,-122.584772,['J1772']
Kitsap Transit - Harborside Parking Garage,Bremerton,98337,47.563883,-122.624526,['J1772']
Panera Bread - Tesla Supercharger,Kelso,98626,46.143261,-122.898533,['TESLA']
ATRIUM GARAGE ATRIUM GARAGE,Bellevue,98004,47.611456,-122.193235,['J1772']
BELLEFIELD MADRONA 1,Bellevue,98004,47.599757,-122.187281,['J1772']
SWD STATION  1 NORTH CITY #1,Shoreline,98155,47.756896,-122.312344,['J1772']
"Cafaro VANCOUVER PLAZA (Vancouver, WA)",Vancouver,98663,45.64994,-122.59332,['J1772COMBO']
MOTORPOOL PRO ARTS 1,Olympia,98501,47.038242,-122.899229,['J1772']
CIBO POINT WHITE DR,Bainbridge Island,98110,47.605226,-122.548468,['J1772']
Mead Chevron,Mead,99021,47.786952,-117.353857,['J1772']
Wenatchee Convention Center,Wenatchee,98801,47.427475,-120.312078,['J1772']
Confluence Health - Stanley Building,Wenatchee,98801,47.431945,-120.323007,['J1772']
Confluence Health - Mares Building,Wenatchee,98801,47.432978,-120.322963,['J1772']
Confluence Health - Central Washington Hospital,Wenatchee,98801,47.406469,-120.322576,['J1772']
Confluence Health - Central Washington Hospital Parking Garage,Wenatchee,98801,47.407649,-120.323973,['J1772']
BROADWAY BLDG STATION 1,Seattle,98122,47.616001,-122.32028,['J1772']
CAPRIO CELLARS STATION 1,Walla Walla,99362,46.011032,-118.36136,['J1772']
"Cafaro TARGET PLACE PLAZA (OLYMPIA, WA)",Olympia,98502,47.04545,-122.93618,"['CHADEMO', 'J1772COMBO']"
Village at Beardslee Crossing - Tesla Supercharger,Bothell,98011,47.767687,-122.191482,['TESLA']
Providence St. Mary Medical Center - Walla Walla,Walla Walla,99362,46.062597,-118.34231,['J1772']
KOZ WEAVER WEAVER RD RIGHT,Snohomish,98290,47.938312,-122.109156,['J1772']
600NINTH 600NINTH,Seattle,98104,47.605888,-122.324733,['J1772']
BELLINGHAM CITY NORTHWEST,Bellingham,98225,48.775966,-122.497084,['J1772']
P-3000 Garage at Carillon Point,Kirkland,98033,47.65753,-122.206519,['J1772']
P-2000 Garage at Carillon Point,Kirkland,98033,47.65753,-122.206519,['J1772']
P-4000 Garage at Carillon Point,Kirkland,98033,47.655327,-122.205254,['J1772']
CI&S COUNTRY INN #1,SeaTac,98188,47.431736,-122.29395,['J1772']
University of Washington - Husky Stadium,Seattle,98195,47.648934,-122.302389,['J1772']
University of Washington - Parking Area S1,Seattle,98195,47.650072,-122.310852,['J1772']
University of Washington - Portage Bay Garage,Seattle,98105,47.653047,-122.313915,['J1772']
University of Washington - Central Plaza Garage,Seattle,98105,47.656832,-122.311626,['J1772']
University of Washington - Parking Area N2,Seattle,98105,47.658987,-122.309214,['J1772']
University of Washington - Parking Area N5,Seattle,98105,47.660311,-122.309086,['J1772']
University of Washington - Parking Area W46,Seattle,98105,47.660696,-122.315595,['J1772']
InterCityTransit,Olympia,98516,47.067908,-122.76289,['J1772']
VBG Seattle,Seattle,98164,47.60578,-122.331858,['J1772']
CITY OF ZILLAH P&R NORTH,Zillah,98953,46.405066,-120.270721,['J1772']
Spokane City Credit Union,Spokane,99205,47.675571,-117.426269,['J1772']
"BELLEVUECOLLEGE BC SSC,U BLDG2",Bellevue,98007,47.583725,-122.145792,['J1772']
"BELLEVUECOLLEGE BC SSC,U BLDG1",Bellevue,98007,47.583738,-122.145777,['J1772']
KGIP BELL SOUTH STATION 6,Bellevue,98114,47.612677,-122.185136,['J1772']
KGIP BELL SOUTH STATION 1,Bellevue,98114,47.612661,-122.185158,['J1772']
KC AIRPORT KC AIRPORT 2,Seattle,98108,47.536812,-122.303923,['J1772']
KING COUNTY DES KC FAUNTLEROY3,Seattle,98136,47.523218,-122.393376,['J1772']
KING COUNTY DES KC FAUNTLEROY2,Seattle,98136,47.523056,-122.395735,['J1772']
SOUND TRANSIT TUKWILA 2,Tukwila,98188,47.460194,-122.240749,['J1772']
KING COUNTY DES SK P&R 4,Kirkland,98033,47.643471,-122.196569,['J1772']
KING COUNTY DES SK P&R 1,Kirkland,98033,47.643584,-122.195913,['J1772']
"Walmart 5195 - Everett, WA",Everett,98204,47.8935,-122.256,"['CHADEMO', 'J1772', 'J1772COMBO']"
Icicle Village Resort - Tesla Destination,Leavenworth,98826,47.589123,-120.672887,['TESLA']
Icicle Village Resort,Leavenworth,98826,47.588981,-120.67331,['J1772']
Holiday Inn Express - Ellensburg,Ellensburg,98926,46.976691,-120.541869,['J1772']
Obertal Inn,Leavenworth,98826,47.595741,-120.659917,['J1772']
Wilkommen Park & Ride,Leavenworth,98826,47.597602,-120.644466,['J1772']
Hampton Inn & Suites - Leavenworth,Leavenworth,98826,47.595939,-120.64403,['J1772']
Broadway Apartments - 1st Floor,Everett,98201,47.9749,-122.2014,['J1772']
KING COUNTY DES ISSAQUAH P&R 6,Issaquah,98029,47.545719,-122.015713,['J1772']
KING COUNTY DES ISSAQUAH P&R 5,Issaquah,98029,47.545785,-122.018499,['J1772']
INSIGNIA 953 150 151N,Seattle,98164,47.606202,-122.33208,['J1772']
INSIGNIA 953 144 145N,Seattle,98104,47.606184,-122.332135,['J1772']
"The Hub at Lacey Office Space: 676 Woodland Square Loop SE, Lacey",Lacey,98503,47.041828,-122.825276,"['CHADEMO', 'J1772', 'J1772COMBO']"
Tellus on Dexter Apartments,Seattle,98109,47.622505,-122.34279,['J1772']
Audi Tri-Cities,Richland,99352,46.259655,-119.282117,['J1772']
KGIP BELL SOUTH STATION 2,Bellevue,98004,47.612419,-122.184446,['J1772']
1500 Orchard Street Apartments,Tacoma,98405,47.2469268,-122.5062726,['J1772']
CITY LIGHT WEST SEATTLE 1,Seattle,98116,47.562261,-122.381633,"['CHADEMO', 'J1772COMBO']"
WOODIN CREEK WOODIN CREEK 2,Woodinville,98072,47.752026,-122.157877,['J1772']
"Target T0995 - Redmond, WA",Redmond,98052,47.67179,-122.10457,"['J1772', 'J1772COMBO']"
4DEGREES STATION 1,Spokane,99216,47.65593,-117.43163,['J1772']
"Fred Meyer 667 (Bellingham, WA)",Bellingham,98226,48.78928,-122.5123,['J1772COMBO']
Stay Pineapple,Bellevue,98004,47.61176,-122.19734,['J1772']
Kitsap Transit - Wheaton Way Transit Center,Bremerton,98310,47.600278,-122.630556,['J1772']
TAC ES TRTC ADMIN CP02,Tacoma,98409,47.227967,-122.499375,['J1772']
TAC PW PARKING CONV CTR CP 01,Tacoma,98402,47.24716,-122.440056,['J1772']
TAC ES CUW SE CP04,Tacoma,98421,47.25953,-122.4337,['J1772']
Target - Tesla Supercharger,Lacey,98503,47.042158,-122.833946,['TESLA']
Pioneer Crossing,Puyallup,98372,47.184725,-122.257002,['J1772']
TAC PW PARKING CONV CTR CP 03,Tacoma,98402,47.247578,-122.4388,['J1772']
SS Central Park,Sunnyside,98944,46.3227794,-120.015553,['J1772']
Archer Hotel at Redmond Town Center - Tesla Destination,Redmond,98052,47.680455,-122.121769,['TESLA']
Equinix SE4 - Tesla Destination,Kent,98032,47.420627,-122.247527,"['J1772', 'TESLA']"
Gift Tree - Tesla Destination,Vancouver,98660,45.641288,-122.689898,['TESLA']
La Quinta Inn & Suites Walla Walla - Tesla Destination,Walla Walla,99362,46.067886,-118.370851,"['J1772', 'TESLA']"
Montgomery East Commercial Center - Tesla Destination,Spokane Valley,99206,47.677124,-117.249314,['TESLA']
Paine Field Airport - Tesla Destination,Everett,98204,47.907484,-122.262013,['TESLA']
Ram Mounts - Tesla Destination,Seattle,98108,47.528157,-122.317101,['TESLA']
Seattle Seahawks Practice Facility - Tesla Destination,Renton,98056,47.535647,-122.197403,['TESLA']
The Ridge Motorsports Park - Tesla Destination,Shelton,98584,47.254252,-123.197171,['TESLA']
ILANI 1A-2 SINGLE,Ridgefield,98642,45.853035,-122.70889,['J1772']
Homewood Suites by Hilton - Lynnwood Seattle Everett,Lynnwood,98037,47.833778,-122.268338,['J1772']
2+U - Tesla Supercharger,Seattle,98101,47.606601,-122.337495,['TESLA']
"Cafaro SOUTH HILL MALL (PUYALLUP, WA)",PUYALLUP,98373,47.15598,-122.29757,['J1772COMBO']
"Woodinville WA4-151 (Woodinville, WA)",Woodinville,98072,47.75414,-122.15115,['J1772COMBO']
Taco Bell Ellensburg,Ellensburg,98926,46.9789,-120.54343,['J1772COMBO']
RPI PORTEMONS 2005 POPLAR 2,Issaquah,98027,47.550487,-122.068649,['J1772']
"Rainier Beach WA3-155 ( Seattle, WA)",Seattle,98118,47.52317,-122.27056,"['CHADEMO', 'J1772COMBO']"
Ballard Blocks - Tesla Supercharger,Seattle,98107,47.662554,-122.37504,['TESLA']
2+U,Seattle,98101,47.606659,-122.337363,['J1772']
Shell Gas Station/BJ's - Tesla Supercharger,Entiat,98822,47.684802,-120.206922,['TESLA']
Roche Harbor Marina,Roche Harbor,98250,48.607282,-123.153777,['J1772']
Snug Harbor Resort,Friday Harbor,98250,48.569915,-123.168265,['J1772']
Friday Harbor Airport,Friday Harbor,98250,48.524715,-123.026405,['J1772']
Burgermaster,Mt. Vernon,98273,48.439781,-122.341794,['J1772']
Comfort Suites Burlington Near I-5,Burlington,98233,48.451871,-122.329766,['J1772']
Skagit Valley College,Mt. Vernon,98273,48.436733,-122.312699,['J1772']
Vision Plus,Bellingham,98225,48.763595,-122.464329,['TESLA']
Bellingham International Airport,Bellingham,98226,48.795524,-122.531874,['J1772']
Caboose Park - Dayton,Dayton,99328,46.320388,-117.980536,"['CHADEMO', 'J1772', 'J1772COMBO']"
Pend Oreille PUD,Newport,99156,48.1817654,-117.043496,['J1772']
BARKLEY VILLAGE CORNERSTONE 1,Bellingham,98226,48.772296,-122.443265,['J1772']
CITY LIGHT TUKWILA 1,Tukwila,98168,47.485044,-122.272604,"['CHADEMO', 'J1772COMBO']"
WILLOWS LODGE WILLOWS #1,Woodinville,98072,47.734159,-122.147041,['J1772']
BELLEVUE SBCC #1,Bellevue,98006,47.568883,-122.145303,['J1772']
PUBLIC CHARGING ANGLE LAKE #1,SeaTac,98188,47.423345,-122.298724,['J1772']
KEY CENTER KEY CENTER 5,Bellevue,98004,47.6161,-122.19692,['J1772']
KEY CENTER KEY CENTER 4,Bellevue,98004,47.616143,-122.19689,['J1772']
KEY CENTER STATION 3,Bellevue,98004,47.616057,-122.196775,['J1772']
KEY CENTER STATION 2,Bellevue,98004,47.616072,-122.196829,['J1772']
KEY CENTER STATION 1,Bellevue,98004,47.616101,-122.196893,['J1772']
KRC SKYLINE SKYLINE #2,Bellevue,98004,47.614334,-122.19401,['J1772']
KRC SKYLINE SKYLINE #3,Bellevue,98004,47.614305,-122.194097,['J1772']
SKAGIT STATION SS2,Mount Vernon,98273,48.417923,-122.334809,['J1772']
UWB CASCADIA CC SOUTH LEVEL 3 E,Bothell,98011,47.75772,-122.190801,['J1772']
NISSAN-EVERETT DC STATION 2,Everett,98204,47.902753,-122.246867,"['CHADEMO', 'J1772COMBO']"
SAFECO PLAZA SAFECO PLAZA #2,Seattle,98154,47.606218,-122.333842,['J1772']
UDR TEN20 #2,Bellevue,98004,47.619855,-122.195919,['J1772']
VALLEY MED CTR MAIN LOT #7,Renton,98055,47.443161,-122.212511,['J1772']
TAC ES CUW CP01 HQ #7,Tacoma,98421,47.260034,-122.434402,['J1772']
VALLEY MED CTR MAIN LOT #6,Renton,98055,47.443215,-122.212479,['J1772']
HAMPTON INN NORTH FRONT,Bellevue,98004,47.612051,-122.186391,['J1772']
VISITOR GARAGE WALL UNIT,Tacoma,98402,47.252059,-122.437484,['J1772']
BELLEVUE DOWNTOWN PARK 1,Bellevue,98004,47.613224,-122.206542,['J1772']
400 DEXTER AVE 400 DEXTER #2,Seattle,98109,47.622329,-122.342153,['J1772']
VM CHARGERS VIRGINIA MASON3,Seattle,98101,47.609553,-122.326337,['J1772']
VM CHARGERS VIRGINIA MASON1,Seattle,98101,47.609501,-122.326457,['J1772']
BELLINGHAM CITY COMMERCIAL ST 1,Bellingham,98225,48.750815,-122.47958,['J1772']
MADISON GARAGE MADISON GARAGE1,Seattle,98104,47.61008,-122.322151,['J1772']
INSIGNIA 953 97 98,Seattle,98121,47.616729,-122.342786,['J1772']
INSIGNIA 953 214 215,Seattle,98121,47.616629,-122.342611,['J1772']
INSIGNIA 953 136 137,Seattle,98121,47.616703,-122.342746,['J1772']
INSIGNIA 953 95 96,Seattle,98121,47.616701,-122.342813,['J1772']
INSIGNIA 953 134 135,Seattle,98121,47.616676,-122.342772,['J1772']
INSIGNIA 953 180 181,Seattle,98121,47.616608,-122.342771,['J1772']
INSIGNIA 953 174 175,Seattle,98121,47.616642,-122.34273,['J1772']
INSIGNIA 953 142 143,Seattle,98121,47.616646,-122.3428,['J1772']
INSIGNIA 953 178 179,Seattle,98121,47.61659,-122.342801,['J1772']
INSIGNIA 953 212 213,Seattle,98121,47.616588,-122.342651,['J1772']
INSIGNIA 953 218 219,Seattle,98121,47.616537,-122.342701,['J1772']
INSIGNIA 953 140 141,Seattle,98121,47.616616,-122.342831,['J1772']
INSIGNIA 953 103 104,Seattle,98121,47.616679,-122.342837,['J1772']
INSIGNIA 953 101 102,Seattle,98121,47.616655,-122.34286,['J1772']
KING COUNTY DES ISSAQUAH P&R 1,Issaquah,98027,47.545335,-122.019501,['J1772']
BELLEVUE SQUARE BELL SQ NORTH 2,Bellevue,98004,47.616939,-122.203004,['J1772']
BELLEVUE SQUARE BELL SQ NORTH 3,Bellevue,98004,47.616865,-122.202993,['J1772']
BELLEVUE SQUARE BELL SQ NORTH 4,Bellevue,98004,47.61677,-122.203004,['J1772']
LINC SQUARE EXP LSS P6 1,Bellevue,98004,47.614098,-122.200748,['J1772']
LINC SQUARE EXP LSS P2 111-112,Bellevue,98004,47.614394,-122.200531,['J1772']
LINC SQUARE EXP LSS P2 104-105,Bellevue,98004,47.614456,-122.200654,['J1772']
LINC SQUARE EXP LSE P2 #1,Bellevue,98004,47.614157,-122.20117,['J1772']
PUBLIC CHARGING ANGLE LAKE #3,SeaTac,98198,47.423292,-122.298719,['J1772']
KING COUNTY DES KSC STATION #6,Seattle,98104,47.598754,-122.331002,['J1772']
KING COUNTY DES KSC STATION #7,Seattle,98104,47.598758,-122.330972,['J1772']
KING COUNTY DES KSC STATION #3,Seattle,98104,47.59856,-122.330929,['J1772']
KING COUNTY DES KSC STATION #2,Seattle,98104,47.59855,-122.331009,['J1772']
KING COUNTY DES KSC STATION #4,Seattle,98104,47.598665,-122.330941,['J1772']
DC CORRIDOR WALLYPARKDC2,SeaTac,98188,47.43625,-122.296639,"['CHADEMO', 'J1772COMBO']"
PARK77 PARK77 LEASING,Arlington,98223,48.179818,-122.12624,['J1772']
SAMMAMISH CITY HALL LOT 1,Sammamish,98075,47.601564,-122.036305,['J1772']
SAMMAMISH CITY HALL LOT 2,Sammamish,98075,47.60161,-122.036303,['J1772']
UWB CASCADIA CC NORTH LEVEL 3 S,Bothell,98011,47.761846,-122.191872,['J1772']
UWB CASCADIA CC SOUTH LEVEL 4 N,Bothell,98011,47.757748,-122.19073,['J1772']
LINC SQUARE EXP LSS P2 102-103,Bellevue,98004,47.614517,-122.200807,['J1772']
LINC SQUARE EXP LSS P2 96 97,Bellevue,98004,47.614302,-122.200871,['J1772']
LINC SQUARE EXP LSS P2 123-124,Bellevue,98004,47.614315,-122.201099,['J1772']
DC CORRIDOR SEAHAWK 12D,Seattle,98134,47.597048,-122.330451,"['CHADEMO', 'J1772COMBO']"
DC CORRIDOR SEAHAWK 12C,Seattle,98134,47.597218,-122.330446,"['CHADEMO', 'J1772COMBO']"
QBRC QBRC 2,Ocean Shores,98569,47.042614,-124.170718,['J1772']
BLACKRIVER BLACKRIVER #2,Renton,98057,47.474453,-122.233397,['J1772']
1101 WESTLAKE WESTLAKE 1,Seattle,98109,47.628886,-122.341407,['J1772']
UWMC SURGERY STATION 1,Seattle,98195,47.64991,-122.307373,['J1772']
BMGF P1 STATION 1,Seattle,98109,47.623464,-122.345818,['J1772']
ISD411 ADMIN CENTER 2,Issaquah,98029,47.554889,-122.047456,['J1772']
INSIGNIA 953 190 191N,Seattle,98121,47.616928,-122.343611,['J1772']
JLR BELLEVUE SHOP 01,Bellevue,98005,47.627472,-122.155871,['J1772']
PACIFIC LUTH U STATION 1,Tacoma,98447,47.145087,-122.438886,['J1772']
SIA ECO 2,Spokane,99224,47.630319,-117.538566,['J1772']
SIA ECO 1,Spokane,99224,47.630409,-117.538666,['J1772']
T-MOBILE PARK ICHIRO,Seattle,98134,47.589652,-122.332938,['J1772']
T-MOBILE PARK FELIX,Seattle,98134,47.589803,-122.332999,['J1772']
T-MOBILE PARK EDGAR,Seattle,98134,47.589701,-122.332937,['J1772']
SKAGITYMCA TWO,Mount Vernon,98273,48.44309,-122.316904,['J1772']
SKAGITYMCA THREE,Mount Vernon,98273,48.443125,-122.316511,['J1772']
LINCOLN SQUARE LS NORTH DUAL 3,Bellevue,98004,47.61705,-122.201056,['J1772']
LINCOLN SQUARE LS NORTH DUAL 2,Bellevue,98004,47.617081,-122.201091,['J1772']
LINCOLN SQUARE LS NORTH DUAL 1,Bellevue,98004,47.617038,-122.201082,['J1772']
188 BLAINE ATRIUM2,Seattle,98102,47.635115,-122.325799,['J1772']
BELLEVUE PLACE BELL PLACE #1,Bellevue,98004,47.618331,-122.201301,['J1772']
BELLEVUE SQUARE BELL SQ WEST 5,Bellevue,98004,47.615923,-122.20553,['J1772']
BELLEVUE SQUARE BELL SQ WEST #1,Bellevue,98004,47.616107,-122.205532,['J1772']
VALLEY MED CTR NE GARAGE #3,Renton,98055,47.444763,-122.21277,['J1772']
COMMUNITY HOUSE COMMUNITY #1,Tacoma,98405,47.248875,-122.45322,['J1772']
COMMUNITY HOUSE COMMUNITY #3,Tacoma,98405,47.248898,-122.453094,['J1772']
UDR CHARGER 3,Bellevue,98004,47.618669,-122.191761,['J1772']
BSD501 SEHOME HIGH #2,Bellingham,98225,48.72757,-122.48128,['J1772']
DUAL EV STATION 3,Seattle,98105,47.66392,-122.300272,['J1772']
DUAL EV STATION 4,Seattle,98105,47.663931,-122.300224,['J1772']
DUAL EV STATION 2,Seattle,98105,47.663935,-122.300285,['J1772']
DUAL EV STATION 1,Seattle,98105,47.663975,-122.300272,['J1772']
THURSTON COUNTY COURTHOUSE 2,Olympia,98502,47.028924,-122.913068,['J1772']
CCB CCB 2,Bellevue,98004,47.614756,-122.195468,['J1772']
CAPITAL GATEWAY STATION 4,Olympia,98501,47.035855,-122.894786,['J1772']
CAPITAL GATEWAY STATION 2,Olympia,98501,47.035865,-122.894692,['J1772']
CAPITAL GATEWAY STATION 8,Olympia,98501,47.035846,-122.8949,['J1772']
PORT OF OLYMPIA WEST,Olympia,98501,47.05093,-122.902434,['J1772']
CAPITAL GATEWAY STATION 6,Olympia,98501,47.035841,-122.895035,['J1772']
BELLEFIELD MADRONA 2,Bellevue,98004,47.599721,-122.187136,['J1772']
KOZ WEAVER WEAVER RD MIDDL,Snohomish,98290,47.938226,-122.108766,['J1772']
CI&S COUNTRY INN #2,SeaTac,98188,47.43163,-122.29393,['J1772']
CITY OF ZILLAH P&R SOUTH,Zillah,98953,46.405006,-120.270737,['J1772']
"BELLEVUECOLLEGE BC SSC,U BLDG3",Bellevue,98007,47.583738,-122.14582,['J1772']
KGIP BELL SOUTH STATION 5,Bellevue,98114,47.612704,-122.185139,['J1772']
KGIP BELL SOUTH STATION 4,Bellevue,98114,47.612706,-122.18514,['J1772']
KGIP BELL SOUTH STATION 3,Bellevue,98004,47.612737,-122.18436,['J1772']
KC AIRPORT KC AIRPORT 1,Seattle,98108,47.53681,-122.303923,['J1772']
SOUND TRANSIT TUKWILA 1,Tukwila,98188,47.460222,-122.240733,['J1772']
KING COUNTY DES SK P&R 5,Kirkland,98033,47.643586,-122.195707,['J1772']
KING COUNTY DES SK P&R 2,Kirkland,98033,47.643579,-122.195911,['J1772']
KING COUNTY DES SK P&R 3,Kirkland,98033,47.643585,-122.195909,['J1772']
KING COUNTY DES ISSAQUAH P&R 7,Issaquah,98029,47.545783,-122.018483,['J1772']
KING COUNTY DES ISSAQUAH P&R 4,Issaquah,98029,47.54578,-122.018474,['J1772']
KING COUNTY DES ISSAQUAH P&R 3,Issaquah,98029,47.545787,-122.018479,['J1772']
INSIGNIA 953 146 147N,Seattle,98164,47.606191,-122.3321,['J1772']
INSIGNIA 953 228 229N,Seattle,98164,47.606129,-122.332106,['J1772']
INSIGNIA 953 192 193N,Seattle,98164,47.606171,-122.332083,['J1772']
INSIGNIA 953 152 153N,Seattle,98164,47.606211,-122.332055,['J1772']
INSIGNIA 953 226 227N,Seattle,98164,47.606119,-122.332135,['J1772']
INSIGNIA 953 186 187N,Seattle,98164,47.60614,-122.332163,['J1772']
INSIGNIA 953 232 233N,Seattle,98164,47.606148,-122.332065,['J1772']
INSIGNIA 953 234N,Seattle,98164,47.606155,-122.332037,['J1772']
INSIGNIA 953 185N,Seattle,98164,47.606126,-122.332195,['J1772']
INSIGNIA 953 194N,Seattle,98164,47.606182,-122.33206,['J1772']
INSIGNIA 953 225N,Seattle,98164,47.606111,-122.332163,['J1772']
INSIGNIA 953 143N,Seattle,98104,47.606162,-122.332173,['J1772']
INSIGNIA 953 188 189N,Seattle,98104,47.606153,-122.332134,['J1772']
WOODIN CREEK WOODIN CREEK 1,Woodinville,98072,47.752007,-122.157917,['J1772']
TAC ES TRTC ADMIN CP01,Tacoma,98409,47.228029,-122.499407,['J1772']
TAC ES CUW SE CP05,Tacoma,98421,47.259555,-122.433611,['J1772']
TAC ES CUW SE CP03,Tacoma,98421,47.259505,-122.433772,['J1772']
TAC PW PARKING CONV CTR CP 04,Tacoma,98402,47.247723,-122.438,['J1772']
ILANI 3B-1 DUAL,Ridgefield,98642,45.85314,-122.709076,['J1772']
ILANI 1B-1 DUAL,Ridgefield,98642,45.853153,-122.70891,['J1772']
ILANI 3B-2 DUAL,Ridgefield,98642,45.853123,-122.70916,['J1772']
ILANI 3A-2 SINGLE,Ridgefield,98642,45.8533,-122.70874,['J1772']
ILANI 3A-3 DUAL,Ridgefield,98642,45.85321,-122.709045,['J1772']
ILANI 3C-1 SINGLE,Ridgefield,98642,45.853115,-122.709,['J1772']
ILANI 3C-2 DUAL,Ridgefield,98642,45.846938,-122.700172,['J1772']
ILANI 3A-4 DUAL,Ridgefield,98642,45.850762,-122.708196,['J1772']
ILANI 3A-1 DUAL,Ridgefield,98642,45.853176,-122.70878,['J1772']
ILANI 3B-3 SINGLE,Ridgefield,98642,45.853138,-122.70895,['J1772']
SANDBERG VOLVO STATION 1,Lynnwood,98037,47.844271,-122.29492,['J1772']
RPI PORTEMONS 2005 POPLAR 1,Issaquah,98027,47.55054,-122.068955,['J1772']
RPI PORTEMONS 2005 POPLAR 3,Issaquah,98027,47.550508,-122.068641,['J1772']
AMPCAP 1003 VANCOUVE 1,Vancouver,98684,45.616152,-122.49766,['J1772']
AMPCAP 1003 VANCOUVE 2,Vancouver,98684,45.616461,-122.49669,['J1772']
FORT DENT STATION EV 1,Tukwila,98188,47.466305,-122.248888,['J1772']
188 BLAINE ATRIUM #1,Seattle,98102,47.635108,-122.325721,['J1772']
ALLEGRO 2019 ASH CREEK,Lynnwood,98037,47.847481,-122.261384,['J1772']
CAPITOL CITY STATION 01,Olympia,98502,47.03286,-122.92909,['J1772']
ALLEN INSTITUTE NORTH,Seattle,98109,47.625256,-122.339032,['J1772']
Pacific Northwest National Laboratory PNNL/RTL,Richland,99354,46.28042,-119.2752,"['J1772', 'NEMA515']"
Pacific Northwest National Laboratory PNNL/EMSL #1,Richland,99354,46.349989,-119.276458,['J1772']
Pacific Northwest National Laboratory PNNL/EMSL #4,Richland,99354,46.347582,-119.277892,['J1772']
Pacific Northwest National Laboratory PNNL/EMSL #5,Richland,99354,46.347582,-119.277892,['J1772']
Pacific Northwest National Laboratory PNNL/EMSL #6,Richland,99354,46.347582,-119.277892,['J1772']
Pacific Northwest National Laboratory PNNL/EMSL #7,Richland,99354,46.347582,-119.277892,['J1772']
Pacific Northwest National Laboratory PNNL/EMSL #8,Richland,99354,46.347582,-119.277892,['J1772']
Pacific Northwest National Laboratory PNNL/EMSL #9,Richland,99354,46.347582,-119.277892,['J1772']
Pacific Northwest National Laboratory PNNL/ETB #1,Richland,99354,46.34637,-119.275448,['J1772']
Pacific Northwest National Laboratory PNNL/ETB #2,Richland,99354,46.34637,-119.275448,['J1772']
Pacific Northwest National Laboratory PNNL/SEB #1,Richland,99354,46.351004,-119.283139,['J1772']
Pacific Northwest National Laboratory PNNL/SEB #2,Richland,99354,46.351004,-119.283139,['J1772']
Pacific Northwest National Laboratory PNNL/3860 #1,Richland,99354,46.351004,-119.283199,['J1772']
Pacific Northwest National Laboratory PNNL/3860 #2,Richland,99354,46.351004,-119.283199,['J1772']
Pacific Northwest National Laboratory PNNL/3860 #3,Richland,99354,46.351004,-119.283199,['J1772']
FAA - Regional Office Building (ANM),Des Moines,98198,47.409788,-122.305105,['J1772']
FHWA - Washington Division,Olympia,98501,47.041738,-122.901763,['J1772']
NOAA,SEATTLE,98112,47.63197,-122.28741,['J1772']
NAS Whidbey Island / N00620-B1973-1,Oak Harbor,98207,48.343166,-122.674942,['J1772']
Mission Support Alliance,Richland,99354,46.321933,-119.276827,['J1772']
Gifford Pinchot National Forest,VANCOUVER,98661,45.624407,-122.667352,['J1772']
District 13,Seattle,98134,47.604596,-122.335458,"['J1772', 'J1772COMBO']"
Pacific Northwest National Laboratory PNNL/PSL,Richland,99354,46.345176,-119.281309,['NEMA515']
Pacific Northwest National Laboratory PNNL/EMSL #1,Richland,99354,46.347582,-119.277892,"['J1772', 'NEMA515']"
Pacific Northwest National Laboratory PNNL/EMSL #10,Richland,99354,46.347582,-119.277892,"['J1772', 'NEMA515']"
Pacific Northwest National Laboratory PNNL/EMSL #4,Richland,99354,46.347582,-119.277892,"['J1772', 'NEMA515']"
Pacific Northwest National Laboratory PNNL/EMSL #5,Richland,99354,46.347582,-119.277892,"['J1772', 'NEMA515']"
Pacific Northwest National Laboratory PNNL/EMSL #6,Richland,99354,46.347582,-119.277892,"['J1772', 'NEMA515']"
Pacific Northwest National Laboratory PNNL/EMSL #7,Richland,99354,46.347582,-119.277892,"['J1772', 'NEMA515']"
Pacific Northwest National Laboratory PNNL/EMSL #8,Richland,99354,46.347582,-119.277892,"['J1772', 'NEMA515']"
Pacific Northwest National Laboratory PNNL/EMSL #9,Richland,99354,46.347582,-119.277892,"['J1772', 'NEMA515']"
Pacific Northwest National Laboratory PNNL/ETB #1,Richland,99354,46.34637,-119.275448,['J1772']
Pacific Northwest National Laboratory PNNL/ETB #2,Richland,99354,46.34637,-119.275448,"['J1772', 'NEMA515']"
FHWA - Western Federal Lands,Vancouver,98661,45.625045,-122.667377,['NEMA515']
Pacific Northwest National Laboratory PNNL/350,Richland,99354,46.270346,-119.299244,['NEMA515']
Pacific Northwest National Laboratory PNNL/LSL2,Richland,99354,46.345657,-119.278,['NEMA515']
Pacific Northwest National Laboratory PNNL/3410,Richland,99354,46.352234,-119.275874,['NEMA515']
Pacific Northwest National Laboratory PNNL/LSB,Richland,99354,46.34923,-119.271417,['NEMA515']
NUWC Keyport,Keyport,98370,47.70224,-122.624811,['NEMA515']
Pacific Northwest National Laboratory PNNL/EMSL #2 - Fleet,Richland,99354,46.347582,-119.277892,['J1772']
Pacific Northwest National Laboratory PNNL/EMSL #2 - Workplace,Richland,99354,46.347582,-119.277892,['J1772']
Pacific Northwest National Laboratory PNNL/MATH #1 - Station 1,Richland,99354,46.344837,-119.280303,['J1772']
Pacific Northwest National Laboratory PNNL/MATH #1 - Station 2,Richland,99354,46.344837,-119.280303,['J1772']
Pacific Northwest National Laboratory PNNL/EMSL #11 - Fleet,Richland,99354,46.347582,-119.277892,['J1772']
Pacific Northwest National Laboratory PNNL/EMSL #11 - Workplace,Richland,99354,46.347582,-119.277892,['J1772']
Pacific Northwest National Laboratory PNNL/BSF-CSF #1 - Station 1,Richland,99354,46.347175,-119.280772,['J1772']
Pacific Northwest National Laboratory PNNL/BSF-CSF #1 - Station 2,Richland,99354,46.347175,-119.280772,"['J1772', 'NEMA515']"
"Safeway #1600 (Bellevue, WA)",Bellevue,98004,47.61332,-122.20062,['J1772COMBO']
"Walmart 3794 - Federal Way, WA",Federal Way,98003,47.29149,-122.30889,"['CHADEMO', 'J1772', 'J1772COMBO']"
TRU TUKWILA TUKWILA 1,Tukwila,98188,47.449352,-122.254496,['J1772']
St. Michael Medical Center - East Garage,Silverdale,98383,47.65654521,-122.6737546,['J1772']
SAMISH NATION CANNERY SOUTH 1,Anacortes,98221,48.51004,-122.608116,['J1772']
SAMISH NATION CANNERY SOUTH 2,Anacortes,98221,48.510044,-122.608185,['J1772']
LODGES CHARGER OFFICE,Yakima,98908,46.589108,-120.601588,['J1772']
Lucky Dog Casino,Shelton,98584,47.337269,-123.160611,['J1772']
Silver Fir Lodge,Snoqualmie Pass,98068,47.401691,-121.407058,"['J1772', 'TESLA']"
LODGES CHARGER GARAGES,Yakima,98908,46.588986,-120.60055,['J1772']
NOJO 1288 NOJO 17,Bellevue,98005,47.622158,-122.176042,['J1772']
NOJO 1288 NOJO 15,Bellevue,98005,47.622172,-122.175417,['J1772']
NOJO 1288 NOJO 8,Bellevue,98005,47.621787,-122.175997,['J1772']
NOJO 1288 NOJO 7,Bellevue,98005,47.621722,-122.175868,['J1772']
NOJO 1288 NOJO 11,Bellevue,98005,47.621671,-122.17589,['J1772']
NOJO 1288 NOJO 3,Bellevue,98005,47.621852,-122.175836,['J1772']
NOJO 1288 NOJO 9,Bellevue,98005,47.621751,-122.175943,['J1772']
NOJO 1288 NOJO 6,Bellevue,98005,47.621758,-122.175804,['J1772']
NOJO 1288 NOJO 13,Bellevue,98005,47.621743,-122.176008,['J1772']
NOJO 1288 NOJO 21,Bellevue,98005,47.62216,-122.176,['J1772']
NOJO 1288 NOJO 2,Bellevue,98005,47.621837,-122.175922,['J1772']
NOJO 1288 NOJO 16,Bellevue,98005,47.622008,-122.175897,['J1772']
NOJO 1288 NOJO 4,Bellevue,98005,47.62183,-122.175707,['J1772']
NOJO 1288 NOJO 10,Bellevue,98005,47.621748,-122.175959,['J1772']
NOJO 1288 NOJO 19,Bellevue,98005,47.621685,-122.176008,['J1772']
NOJO 1288 NOJO 22 ADA,Bellevue,98005,47.621826,-122.175977,['J1772']
NOJO 1288 NOJO 12,Bellevue,98005,47.621808,-122.176051,['J1772']
NOJO 1288 NOJO 23,Bellevue,98005,47.621657,-122.175954,['J1772']
NOJO 1288 NOJO 20,Bellevue,98005,47.622044,-122.175811,['J1772']
NOJO 1288 NOJO 18,Bellevue,98005,47.62211,-122.175807,['J1772']
NOJO 1288 NOJO 14,Bellevue,98005,47.621921,-122.176015,['J1772']
NOJO 1288 NOJO 1,Bellevue,98005,47.621942,-122.175942,['J1772']
SANDBERG VOLVO STATION 2,Lynnwood,98037,47.843755,-122.294874,['J1772']
"QFC 828 (Kirkland, WA)",Kirkland,98034,47.71142,-122.19086,"['J1772', 'J1772COMBO']"
Venn@Main - Tesla Supercharger,Bellevue,98004,47.611048,-122.202181,['TESLA']
Northgate Mall - Tesla Supercharger,Seattle,98125,47.706589,-122.327778,['TESLA']
Bob's Burgers & Brew - Tesla Supercharger,Yakima,98901,46.609653,-120.491932,['TESLA']
Evergreen State College - Parking Lot C,Olympia,98505,47.071917,-122.976675,['J1772']
KOZ WEAVER WEAVER RD LEFT,Snohomish,98290,47.938215,-122.109075,['J1772']
PCC NATURAL PCC EDMONDS,Edmonds,98020,47.791134,-122.36613,['J1772']
NOJO 1288 NOJO 5,Bellevue,98005,47.621784,-122.175908,['J1772']
Celebration Center - Tesla Supercharger,Federal Way,98003,47.314888,-122.31487,['TESLA']
VALLEY MED CTR NE GARAGE #1,Renton,98055,47.444946,-122.212785,['J1772']
"Madison Pike WA3-141 ( Seattle, WA)",Seattle,98122,47.61388,-122.31477,['J1772COMBO']
St. Michael Medical Center - Pavilion Garage,Silverdale,98383,47.6583744,-122.6760529,['J1772']
UP EV STATION STATION 1,Seattle,98105,47.662815,-122.31902,['J1772']
"BoA Georgetown WA3-129 (Seattle, WA)",Seattle,98108,47.54795,-122.31837,"['CHADEMO', 'J1772COMBO']"
Alley 24 East,Seattle,98109,47.620214,-122.330658,['J1772']
CITY OF SEATAC CITY HALL 2,SeaTac,98188,47.434028,-122.273262,['J1772']
Porch Swing Properties,Lynden,98264,48.942575,-122.455243,['J1772']
"The Outlet Collection ( Auburn, WA)",Auburn,98001,47.29764,-122.24928,"['CHADEMO', 'J1772COMBO']"
LINC SQUARE EXP LSS P2 98-99,Bellevue,98004,47.614345,-122.200772,['J1772']
SAINT MARK'S SAINT MARKS,Seattle,98102,47.63173,-122.32099,['J1772']
Ridgewood Corporate Square Building G,Bellevue,98005,47.611519,-122.182197,['J1772']
Ridgewood Corporate Square Building D,Bellevue,98005,47.611815,-122.178134,['J1772']
"Walmart 2196 (Port Angeles, WA)",Port Angeles,98362,48.10993,-123.36134,"['CHADEMO', 'J1772COMBO']"
The Society Hotel,Bingen,98605,45.714228,-121.461813,['J1772']
KIRKLAND LIBRARY DUAL 2,Kirkland,98033,47.675893,-122.203128,['J1772']
KIRKLAND MARINA DUAL 2,Kirkland,98033,47.675556,-122.207383,['J1772']
KIRKLAND LIBRARY SOUTH 1,Kirkland,98033,47.675788,-122.202958,['J1772']
KIRKLAND MARINA PARK 1,Kirkland,98033,47.675365,-122.2075,['J1772']
KIRKLAND CITYHALL PUBLIC,Kirkland,98033,47.678476,-122.206806,['J1772']
Harvard Market,Seattle,98122,47.613498,-122.320931,['J1772']
DC CORRIDOR ZOO OTTER L2-S1,Seattle,98103,47.670285,-122.353765,['J1772']
DC CORRIDOR ZOO OTTER L2-D2,Seattle,98103,47.670287,-122.353696,['J1772']
DC CORRIDOR ZOO OTTER L2-D1,Seattle,98103,47.670292,-122.353627,['J1772']
"BoA Queen Anne WA3-154 (Seattle, WA)",Seattle,98119,47.62482,-122.35829,['J1772COMBO']
LC TRANSIT MELLEN ST. 1,Centralia,98531,46.711331,-122.976491,"['CHADEMO', 'J1772COMBO']"
LC TRANSIT MELLEN ST. 2,Centralia,98531,46.711291,-122.976524,['J1772']
NORTH COVE PARK STATION 1,Lake Stevens,98258,48.014624,-122.065442,['J1772']
Norland Trails,Poulsbo,98370,47.7651883,-122.6573597,['J1772']
"Walmart 2037 (Aberdeen, WA)",Aberdeen,98520,46.97642,-123.80708,"['CHADEMO', 'J1772COMBO']"
Timber Ridge At Talus,Issaquah,98027,47.53129,-122.06573,['J1772']
"Albertsons Safeway 1589 (Leavenworth, WA)",Leavenworth,98826,47.59736,-120.64588,['J1772COMBO']
Wonderland Estates,Renton,98058,47.465678,-122.142289,['J1772']
HOPEWORKS HOPEWORKS 1,Everett,98201,47.97331,-122.201162,['J1772']
SMT Garage -700 5th Ave Seattle,Seattle,98104,47.60521,-122.32972,['J1772']
SMT Garage - 700 5th Ave Seattle- DC Fast Charger,Seattle,98104,47.62606,-122.349,['J1772']
Everett Community College - Lot F,Everett,98201,48.005854,-122.204166,['J1772']
SEA41 SEA41 - 1,Seattle,98119,47.616159,-122.340064,['J1772']
AMZ SEA40 - 5,Seattle,98121,47.615052,-122.338336,['J1772']
AMZ SEA40 - 6,Seattle,98121,47.614986,-122.338444,['J1772']
AMZ SEA40 - 3,Seattle,98121,47.61554,-122.338778,['J1772']
AMZ SEA40 - 4,Seattle,98121,47.615059,-122.338454,['J1772']
AMZ SEA40 - 2,Seattle,98121,47.615399,-122.338834,['J1772']
AMZ SEA40 - 1,Seattle,98121,47.615489,-122.338786,['J1772']
SEA41 SEA41 - 4,Seattle,98121,47.616253,-122.340184,['J1772']
SEA41 SEA41 - 3,Seattle,98121,47.616246,-122.340184,['J1772']
SEA41 SEA41 - 6,Seattle,98121,47.616231,-122.340205,['J1772']
SEA41 SEA41 - 2,Seattle,98121,47.616129,-122.340052,['J1772']
SEA41 SEA41 - 5,Seattle,98121,47.616224,-122.340227,['J1772']
AMZ SEA25.26 - 1,Seattle,98109,47.623336,-122.336584,['J1772']
AMZ SEA25.26 - 2,Seattle,98109,47.62334,-122.336589,['J1772']
AMZ SEA25.26 3,Seattle,98109,47.623333,-122.336648,['J1772']
AMZ SEA25.26 - 4,Seattle,98109,47.623327,-122.336677,['J1772']
AMZ SEA24 01,Seattle,98109,47.623442,-122.335352,['J1772']
AMZ SEA24 02,Seattle,98109,47.623537,-122.335474,['J1772']
AMZ SEA20-22 001,Seattle,98109,47.622775,-122.336355,['J1772']
AMZ SEA20-22 002,Seattle,98109,47.622775,-122.336346,['J1772']
AMZ SEA20-22 004,Seattle,98109,47.623027,-122.3365,['J1772']
AMZ SEA20-22 003,Seattle,98109,47.623014,-122.336611,['J1772']
SEA27 28 SEA27-28 P4 001,Seattle,98109,47.621746,-122.336402,['J1772']
AMZ SEA27-28 P4 002,Seattle,98109,47.621821,-122.33637,['J1772']
SEA27 28 SEA27 28 P4 003,Seattle,98109,47.621851,-122.336423,['J1772']
SEA29 SEA29 - 1,Seattle,98109,47.620496,-122.33622,['J1772']
SEA29 SEA29 - 2,Seattle,98109,47.620275,-122.336253,['J1772']
SEA29 SEA29 - 4,Seattle,98109,47.620392,-122.336265,['J1772']
SEA29 SEA29 - 3,Seattle,98109,47.620267,-122.336259,['J1772']
SEA29 SEA29 - 5,Seattle,98109,47.62036,-122.336252,['J1772']
AMZ SEA23 P1 001,Seattle,98109,47.623917,-122.337695,['J1772']
AMZ SEA42 - 7,Seattle,98121,47.61664,-122.338877,['J1772']
AMZ SEA42 - 1,Seattle,98121,47.61669,-122.338963,['J1772']
AMZ SEA42 - 9,Seattle,98121,47.616677,-122.339024,['J1772']
AMZ SEA42 - 8,Seattle,98121,47.616684,-122.339013,['J1772']
AMZ SEA42 - 3,Seattle,98121,47.616676,-122.338931,['J1772']
AMZ SEA42 - 4,Seattle,98121,47.61669,-122.338985,['J1772']
AMZ SEA42 - 10,Seattle,98121,47.616684,-122.33897,['J1772']
AMZ SEA42 - 2,Seattle,98121,47.616712,-122.33907,['J1772']
AMZ SEA42 - 6,Seattle,98121,47.616632,-122.338942,['J1772']
AMZ SEA42 - 5,Seattle,98121,47.616654,-122.338888,['J1772']
AMZ SEA43 - 5,Seattle,98121,47.61751,-122.340955,['J1772']
AMZ SEA43 - 2,Seattle,98121,47.617088,-122.339838,['J1772']
AMZ SEA43 - 7,Seattle,98121,47.61751,-122.34093,['J1772']
AMZ SEA43 - 6,Seattle,98121,47.617528,-122.340928,['J1772']
AMZ SEA43 - 3,Seattle,98121,47.617167,-122.33982,['J1772']
AMZ SEA43 - 4,Seattle,98121,47.617495,-122.340974,['J1772']
AMZ SEA43 - 1,Seattle,98121,47.617111,-122.339836,['J1772']
AMZ SEA44 - 2,Seattle,98121,47.616677,-122.341108,['J1772']
AMZ SEA44 - 3,Seattle,98121,47.616638,-122.34103,['J1772']
AMZ SEA44 - 4,Seattle,98121,47.616654,-122.341021,['J1772']
AMZ SEA44 - 1,Seattle,98121,47.616696,-122.341147,['J1772']
AMZ SEA94 05,Bellevue,98004,47.613364,-122.196731,['J1772']
AMZ SEA94 10,Bellevue,98004,47.613372,-122.196796,['J1772']
AMZ SEA94 09,Bellevue,98004,47.613343,-122.196839,['J1772']
AMZ SEA94 04,Bellevue,98004,47.613386,-122.196667,['J1772']
AMZ SEA94 01,Bellevue,98004,47.613372,-122.196721,['J1772']
AMZ SEA94 02,Bellevue,98004,47.613386,-122.19671,['J1772']
AMZ SEA94 11,Bellevue,98004,47.61335,-122.196817,['J1772']
AMZ SEA94 06,Bellevue,98004,47.613401,-122.19671,['J1772']
AMZ SEA94 13,Bellevue,98004,47.613357,-122.196882,['J1772']
AMZ SEA94 08,Bellevue,98004,47.613364,-122.196774,['J1772']
AMZ SEA94 12,Bellevue,98004,47.613357,-122.196624,['J1772']
AMZ SEA94 07,Bellevue,98004,47.613343,-122.196753,['J1772']
AMZ SEA94 03,Bellevue,98004,47.613343,-122.196699,['J1772']
AMZ SEA94 14,Bellevue,98004,47.613106,-122.197548,['J1772']
The Century Apartments - Retail Parking,Seattle,98109,47.618918,-122.346874,['J1772']
The Century Apartments - Residential Parking,Seattle,98109,47.619488,-122.346886,['J1772']
UWB CASCADIA CC WEST LEVEL 2 N,Bothell,98011,47.75969,-122.193886,['J1772']
UWB CASCADIA CC WEST LEVEL 4 W,Bothell,98011,47.759644,-122.1939,['J1772']
UWB CASCADIA CC WEST LEVEL 2E,Bothell,98011,47.75966,-122.19387,['J1772']
UWB CASCADIA CC WEST LEVEL 1 W,Bothell,98011,47.759647,-122.193886,['J1772']
UWB CASCADIA CC WEST LEVEL 3 E,Bothell,98011,47.75966,-122.19386,['J1772']
UWB CASCADIA CC WEST LEVEL 2 W,Bothell,98011,47.75964,-122.19391,['J1772']
"Kroger Fred Meyer 655 (Port Orchard, WA)",Port Orchard,98366,47.50453,-122.62941,"['CHADEMO', 'J1772COMBO']"
UWB CASCADIA CC WEST LEVEL 1 E,Bothell,98011,47.759598,-122.193902,['J1772']
Overlake Medical Pavilion - Garage 5,Bellevue,98004,47.621194,-122.186139,['J1772']
Red Parking Lot,Puyallup,98371,47.185296,-122.299236,['J1772']
AHP STATIONS HAAGEN 1,Vancouver,98684,45.632629,-122.535748,['J1772']
AHP STATIONS HAAGEN 2,Vancouver,98684,45.631786,-122.535136,['J1772']
1217 STATE SATURNA 01,Bellingham,98225,48.747824,-122.478347,['J1772']
HUB Garage,Seattle,98188,47.43001676,-122.2961501,['J1772']
531608  UW Tacoma C17 Garage,Tacoma,98402,47.2464713,-122.4396442,['J1772']
Light House Park,Mukilteo,98275,47.9487555,-122.3062009,['J1772']
Main Street #5,Edmonds,98020,47.8105149,-122.3748742,['J1772']
Willows A,Redmond,98052,47.70340520000001,-122.1537852,['J1772']
PUD Lot on Govan St.,Sequim,98382,48.07988782,-123.097497,['J1772']
Troy Block (Stations Not Installed),Seattle,98109,47.6212213,-122.3353408,['J1772']
"Plaza by the Green - 24437 Russell Rd, Kent",Kent,98032,47.382188,-122.261354,"['CHADEMO', 'J1772', 'J1772COMBO']"
SNOQUALMIE CITY FALLS AVE,Snoqualmie,98065,47.527683,-121.8237,['J1772']
SNOQUALMIE CITY COMMUNITY LOT,Snoqualmie,98065,47.532721,-121.873105,['J1772']
Shoalwater Bay Casino,Grayland,98590,46.84844697,-124.1058846,['J1772']
Hotel lndigo Everett,Everett,98201,48.0000028,-122.2146431,['J1772']
City of Waitsburg,Waitsburg,99361,46.2707488,-118.1532507,['J1772']
1203 Parking Lot,Anacortes,98221,48.5012896,-122.6152529,['J1772']
531606  Willows Commerce Park - DigiPen,Redmond,98052,47.688818,-122.150315,['J1772']
929 Office Tower,Bellevue,98004,47.618317,-122.1969022,['J1772']
Sunset North,Bellevue,98005,47.582405,-122.153989,['J1772']
Queen Anne Square,Seattle,98119,47.6246042,-122.3593182,['J1772']
Washington State Convention Center Parking Garage,Seattle,98101,47.611378281765,-122.3314401402,['J1772']
Kalaloch Lodge,Forks,98331,47.96137107,-124.3960576,['J1772']
Willows Building D,Redmond,98052,47.7088267,-122.1601307,['J1772']
431004  The Reserve at CTC,Vancouver,98683,45.6183882,-122.4917385,['J1772']
531616 - Marion & Minor Garage,Seattle,98104,47.6091997,-122.3241094,['J1772']
450 Alaskan Garage,Seattle,98104,47.5987016,-122.3351902,['J1772']
192nd West Lofts,Camas,98607,45.6040109,-122.4757978,['J1772']
City Hall,College Place,99324,46.0427838,-118.3869759,['J1772']
Plaza East,Bellevue,98004,47.6177789,-122.1915562,['J1772']
"Port of Seattle, Fishermen's Terminal, West Wall BLDG",Seattle,98199,47.65588111,-122.3827633,['J1772']
531613 - 1000-1100 Dexter Avenue N,Seattle,98109,47.6283848,-122.3418983,['J1772']
Sidneysea LLC - Brazil,Seattle,98109,47.6228746,-122.3394194,['J1772']
Gateway Transit Center,Port Angeles,98362,48.1197291,-123.4322999,['J1772']
505 First Garage,Seattle,98104,47.5974244,-122.3347174,['J1772']
1007 Stewart Street/ service decline,Seattle,98101,47.6163395,-122.3330877,['J1772']
"531603 701 Pike Street (Seattle), LLC",Seattle,98101,47.6115019,-122.3329014,['J1772']
The Corydon,Seattle,98105,47.618848,-122.3467506,['J1772']
Waterfront Place,Seattle,98104,47.6044756,-122.3378981,['J1772']
531609  Pierce County Annex,Tacoma,98409,47.22830373,-122.4675536,['J1772']
Columbia Center Building,Vancouver,98683,45.613275,-122.50409,['J1772']
Quillayute River Resort,Forks,98331,47.9148059463057,-124.544494766543,['J1772']
EZstop Kalama Waterfront,Kalama,98625,46.0039829278164,-122.845311463165,"['CHADEMO', 'J1772COMBO']"
COLLEGE HALL CROSBY HOUSE,Spokane,99258,47.669317,-117.402327,['J1772']
TPS FACILITIES BROWNS POINTE 2,Tacoma,98422,47.30283,-122.424971,['J1772']
NPS PWR LARO- Headquarters,Coulee Dam,99116,47.969278,-118.968139,['NEMA1450']
NPS PWR NOCA-Marblemount Ranger Station,Marblemount,98267,48.53841,-121.448148,['NEMA1450']
NPS PWR NOCA-Stehkin Golden West VC,Marblemount,98267,48.666724,-121.264849,['NEMA1450']
Columbia Basin JCC,Moses Lake,98837,47.130142,-119.278077,['NEMA1450']
Ft. Simcoe JCC,White Swan,98952,46.339724,-120.85306,['NEMA1450']
Schoolhouse District,Woodinville,98072,47.7534858,-122.1629554,['J1772']
Geo Apartments,Shoreline,98133,47.7592911,-122.3448427,['J1772']
IBEW Local 191,Mt. Vernon,98273,48.3990120273125,-122.333582969284,['J1772']
Hampton Inn & Suites Portland/Vancouver,Vancouver,98684,45.618949,-122.525453,['J1772']
Providence Regional Medical Center Everett,Everett,98201,48.00101,-122.2061313,['J1772']
Hoh Valley Cabins,Forks,98331,47.8176852900045,-124.151851571593,['J1772']
Hobuck Beach Resorts South,Neah Bay,98357,48.3331786074504,-124.660029250436,['J1772']
KING COUNTY WTD BRIGHTWATER - 1,Woodinville,98072,47.793213,-122.14057,['J1772']
KING COUNTY WTD BRIGHTWATER - 2,Woodinville,98072,47.793168,-122.140579,['J1772']
KING COUNTY WTD BRIGHTWATER - 4,Woodinville,98072,47.793094,-122.140577,['J1772']
KING COUNTY WTD BRIGHTWATER - 3,Woodinville,98072,47.793124,-122.140598,['J1772']
RADIATE 4000 RADIATE 1,Redmond,98052,47.673795,-122.128859,['J1772']
RADIATE 4000 RADIATE 2,Redmond,98052,47.673824,-122.128893,['J1772']
Tacoma Recovery and Transfer Center,Tacoma,98368,47.22802756,-122.4993181,['J1772']
CPA STATION 10,Seattle,98109,47.621409,-122.353711,['J1772']
CPA STATION 4,Seattle,98109,47.621311,-122.353622,['J1772']
CPA STATION 3,Seattle,98109,47.621313,-122.353652,['J1772']
CPA STATION 12,Seattle,98109,47.621413,-122.353638,['J1772']
CPA STATION 8,Seattle,98109,47.621376,-122.353648,['J1772']
CPA STATION 11,Seattle,98109,47.621411,-122.353676,['J1772']
CPA STATION 5,Seattle,98109,47.621312,-122.353589,['J1772']
CPA STATION 7,Seattle,98109,47.621377,-122.353675,['J1772']
CPA STATION 6,Seattle,98109,47.621377,-122.353708,['J1772']
CPA STATION 2,Seattle,98109,47.621309,-122.353679,['J1772']
CPA STATION 9,Seattle,98109,47.621378,-122.35362,['J1772']
TPS FACILITIES BROWNS POINT #3,Tacoma,98422,47.302692,-122.424934,['J1772']
"QFC 807 (Seattle, WA)",Seattle,98105,47.66149,-122.29641,['J1772COMBO']
CITY LIGHT BURIEN LIBRARY,Burien,98166,47.467371,-122.33941,"['CHADEMO', 'J1772COMBO']"
KETA 2355 KETA 8 ADA,Bellevue,98005,47.621055,-122.175961,['J1772']
KETA 2355 KETA 2,Bellevue,98005,47.62119,-122.176009,['J1772']
KETA 2355 KETA 4,Bellevue,98005,47.62118,-122.175985,['J1772']
KETA 2355 KETA 1,Bellevue,98005,47.621179,-122.176023,['J1772']
KETA 2355 KETA 5,Bellevue,98005,47.621104,-122.175923,['J1772']
KETA 2355 KETA 6,Bellevue,98005,47.620982,-122.175927,['J1772']
KETA 2355 KETA 7,Bellevue,98005,47.620905,-122.175829,['J1772']
MDS QUINCY DCQUINCYMWH0601,Quincy,98848,47.238641,-119.895401,['J1772']
MDS QUINCY DCQUINCYMWH0602,Quincy,98848,47.238277,-119.895745,['J1772']
THE OLIVIAN OLIVIAN #1,Seattle,98101,47.614104,-122.33319,['J1772']
THE OLIVIAN OLIVIAN #2,Seattle,98101,47.614112,-122.333147,['J1772']
PROPELLER1 PAINEFIELD STA1,Everett,98204,47.909011,-122.278394,['J1772']
"Kroger Fred Meyer 691 (Gig Harbor, WA)",Gig Harbor,98335,47.30668,-122.58015,"['CHADEMO', 'J1772COMBO']"
Willows Building B,Redmond,98052,47.7096188,-122.1623907,['J1772']
"FRED MEYER 608 (Ballard, WA)",Seattle,98107,47.6594,-122.36947,['J1772COMBO']
"Kroger QFC 126 (Lacey, WA)",Lacey,98512,46.99538,-122.82349,['J1772COMBO']
Belfair Log Plaza,Belfair,98528,47.451373,-122.826865,['J1772']
SIA W GARAGE F.1 #4,Spokane,99224,47.62497,-117.539743,['J1772']
SIA W GARAGE F.1 #7,Spokane,99224,47.625057,-117.53991,['J1772']
"Community Food Co-Op: 315 Westerly Rd, Bellingham",Bellingham,98226,48.791677,-122.492894,"['CHADEMO', 'J1772', 'J1772COMBO']"
Sunnyside High School,Sunnyside,98944,46.323285894252,-119.99395804467,['J1772']
SIA W GARAGE F.1 #5,Spokane,99224,47.624986,-117.539808,['J1772']
SIA W GARAGE F.1 #3,Spokane,99224,47.625019,-117.539665,['J1772']
SIA W GARAGE F.1 #2,Spokane,99224,47.625059,-117.539598,['J1772']
SIA W GARAGE F.1 #6,Spokane,99224,47.625024,-117.539864,['J1772']
ILANI STATION 2,Ridgefield,98642,45.852238,-122.708784,['J1772']
ILANI STATION 3,Ridgefield,98642,45.852356,-122.708312,['J1772']
KRC SKYLINE STATION #4,Bellevue,98004,47.613972,-122.194125,['J1772']
KRC SKYLINE STATION #5,Bellevue,98004,47.613973,-122.194071,['J1772']
MOUNTLAKE EVCS STATION1,Mountlake Terrace,98043,47.787897,-122.311661,['J1772']
MOUNTLAKE EVCS STATION2,Mountlake Terrace,98043,47.787867,-122.31192,['J1772']
TACOMA PARKS STAR CENTER #1,Tacoma,98409,47.198314,-122.489257,['J1772']
TACOMA PARKS LES DAVIS #2,Tacoma,98407,47.282993,-122.48233,['J1772']
EASTGATE 15325 DUAL,Bellevue,98007,47.584289,-122.136777,['J1772']
BUTLER GARAGE BUTLER EV #1,Seattle,98104,47.602544,-122.33301,['J1772']
BUTLER GARAGE BUTLER EV #2,Seattle,98104,47.602553,-122.332883,['J1772']
CPU DC STATION 1,Vancouver,98661,45.629395,-122.663203,"['CHADEMO', 'J1772COMBO']"
CPU DC STATION 2,Vancouver,98661,45.629428,-122.663273,"['CHADEMO', 'J1772COMBO']"
OLYMPIA LILLY R PETROCARD 1,Olympia,98501,47.044789,-122.845681,"['CHADEMO', 'J1772COMBO']"
HOMEWOOD SUITES HOMEWOOD #1,Issaquah,98027,47.547088,-122.065336,['J1772']
OLYMPIA LILLY R PETROCARD 2,Olympia,98501,47.044508,-122.845096,"['CHADEMO', 'J1772COMBO']"
The Wayne Apartments,Renton,98058,47.4418203,-122.1554235,['J1772']
TACOMA PARKS LES DAVIS #1,Tacoma,98402,47.282974,-122.48227,['J1772']
City of Seattle 1010 8th Ave,Seattle,98134,47.593975,-122.324221,['J1772']
REN DENNY CTR1,Seattle,98121,47.618226,-122.333907,['J1772']
REN DENNY CTR2,Seattle,98121,47.61823,-122.33392,['J1772']
REN DENNY CTR3,Seattle,98121,47.618233,-122.33391,['J1772']
REN DENNY CTR4,Seattle,98121,47.618223,-122.334017,['J1772']
REN DENNY CTR5,Seattle,98121,47.618246,-122.333948,['J1772']
REN DENNY CTR6,Seattle,98121,47.618237,-122.33389,['J1772']
REN DENNY CTR7,Seattle,98121,47.618244,-122.33387,['J1772']
REN DENNY CTR8,Seattle,98121,47.61824,-122.333855,['J1772']
Volkswagen of Kirkland,Kirkland,98034,47.7108371216806,-122.17214269969,['J1772COMBO']
Richland,Richland,99352,46.25924,-119.30995,"['CHADEMO', 'J1772', 'J1772COMBO']"
KETA 2355 KETA 3,Bellevue,98005,47.621188,-122.175998,['J1772']
"BofA Overlake Park WA3-152 (Redmond, WA)",Redmond,98502,47.63187,-122.14277,['J1772COMBO']
EASTGATE 15395 DUAL - #1,Bellevue,98007,47.582147,-122.136648,['J1772']
EASTGATE 15395 DUAL - #2,Bellevue,98007,47.582154,-122.136594,['J1772']
"Walmart 5272 (Poulsbo, WA)",Poulsbo,98370,47.75648,-122.66051,"['CHADEMO', 'J1772COMBO']"
"Fred Meyer 179 (Seattle, WA)",Seattle,98125,47.72305,-122.29212,"['CHADEMO', 'J1772COMBO']"
ELEMENT TUKWILA STATION 2,Tukwila,98188,47.453215,-122.249421,['J1772']
ELEMENT TUKWILA STATION 1,Tukwila,98188,47.453253,-122.24899,['J1772']
Blue Parking Lot - North,Puyallup,98372,47.182613,-122.291317,['J1772']
Franklin PUD Energy Services,Pasco,99301,46.229119,-119.106522,['J1772']
ANACORTESEV N CH WEST EV1,Anacortes,98221,48.518102,-122.611203,['J1772']
ANACORTESEV N CH WEST EV#2,Anacortes,98221,48.518179,-122.611202,['J1772']
DC VANCOUVER DC4,Vancouver,98661,45.639182,-122.623391,"['J1772COMBO', 'TESLA']"
DC VANCOUVER DC2,Vancouver,98661,45.639153,-122.623459,"['J1772COMBO', 'TESLA']"
DC VANCOUVER DC1,Vancouver,98661,45.639139,-122.62349,"['J1772COMBO', 'TESLA']"
Public Safety #4,Edmonds,98020,47.8124532,-122.3758246,['J1772']
City Hall #2,Edmonds,98020,47.8113372,-122.37709,['J1772']
Port of Seattle - Shilshole Bay Marina South Lot,Seattle,98117,47.6807529,-122.4047949,['J1772']
AMZ SEA106-1,Bellevue,98004,47.619761,-122.199755,['J1772']
AMZ SEA106-2,Bellevue,98004,47.619799,-122.199793,['J1772']
AMZ SEA106-5,Bellevue,98004,47.61977,-122.199722,['J1772']
Langley Park,Langley,98260,48.039928,-122.409736,['J1772']
WOLF DEN 76 STATION 1,Wapato,98951,46.448508,-120.43099,['J1772']
WOLF DEN 76 STATION 2 DC,Wapato,98951,46.448538,-120.430957,"['CHADEMO', 'J1772COMBO']"
123 4th Apartments Location 1,Olympia,98501,47.044728,-122.902484,['J1772']
Spiritwood Manor,Bellevue,98007,47.5976,-122.142,['J1772']
ANACORTESEV LIBRARY EV,Anacortes,98221,48.514381,-122.616919,['J1772']
ANACORTESEV E CH PARKING #3,Anacortes,98221,48.517744,-122.610748,['J1772']
Vista Field - Deschutes Avenue,Kennewick,99336,46.216773190847,-119.21101917564,['J1772']
Big B Truck Stop - Tesla Supercharger,Sprague,99032,47.209058,-118.22567,['TESLA']
"Liberty Lake, WA - Tesla Supercharger",Liberty Lake,99019,47.67381,-117.1130101,['TESLA']
NE STATION NE STATION,Tulalip,98271,48.052803,-122.187759,['J1772']
NE STATION NW STATION,Tulalip,98271,48.052792,-122.187748,['J1772']
DC RICHLAND 2,Richland,99352,46.230229,-119.226637,"['CHADEMO', 'J1772COMBO']"
DC RICHLAND 1,Richland,99352,46.230409,-119.227595,"['CHADEMO', 'J1772COMBO']"
LEVEL II CHARGE LEVEL II CHARGE,Anacortes,98221,48.507864,-122.613612,['J1772']
TAC ES CUW S CP02,Tacoma,98421,47.2593,-122.43424,['J1772']
525 NORTHGATE RESIDENTIAL #2,Seattle,98125,47.70779,-122.321726,['J1772']
525 NORTHGATE RESIDENTIAL #1,Seattle,98125,47.707814,-122.321637,['J1772']
PRISM STATIONS PRISM STATION 2,Seattle,98125,47.706929,-122.320888,['J1772']
PRISM STATIONS PRISM STATION 1,Seattle,98125,47.706948,-122.320856,['J1772']
KORUM HYUNDAI PC 2,Puyallup,98371,47.199421,-122.295091,"['CHADEMO', 'J1772COMBO']"
KORUM HYUNDAI PC 1,Puyallup,98371,47.199423,-122.295043,"['CHADEMO', 'J1772COMBO']"
CAR CHARGE 1 STATION 8,Pasco,99301,46.225504,-119.118868,['J1772']
SureStay Hotel by Best Western - Tesla Supercharger,Ellensburg,98926,46.977979,-120.542576,['TESLA']
Brewery Block TAC,Tacoma,98402,47.2423503,-122.4367763,['J1772']
South 405 Place,Renton,98057,47.46655,-122.22995,['J1772']
BOARDWALK APTS STATION 6,Kirkland,98033,47.676223,-122.19942,['J1772']
BOARDWALK APTS STATION 8,Kirkland,98033,47.676179,-122.199363,['J1772']
"Saffron Partners, L.L.C. (Retail)",Sammamish,98390,47.6169094,-122.0334614,['J1772']
WSECU N.DIVISION #01,Spokane,99208,47.71535,-117.412094,['J1772']
CITY LIGHT MADISON MILLER1,Seattle,98122,47.617082,-122.304055,"['CHADEMO', 'J1772COMBO']"
Leasing office Parking lot,Spokane Valley,99216,47.670337,-117.1812368,['J1772']
Providence - Centralia Hospital,Centralia,98531,46.712297,-122.985516,['J1772']
KCPW STATION 1,Goldendale,98620,45.821511,-120.823346,['J1772']
Lynnwood Apartments,Lynwood,98036,47.816836,-122.290084,['J1772']
KCPW STATION 2,Goldendale,98620,45.821535,-120.822781,['J1772']
"Bellingham 1, LLP",Bellingham,98226,48.7885917,-122.5060156,['J1772']
Western Washington University,Bellingham,98225,48.7391984,-122.4851568,['J1772']
First St Station,Snohomish,98290,47.9120626,-122.1014074,['J1772']
6th Ave #6,Edmonds,98020,47.8101038,-122.3735496,['J1772']
Array Apartments,Seattle,98125,47.731273,-122.293062,['J1772']
3102 6th Avenue,Tacoma,98421,47.2551169,-122.4766114,['J1772']
DC CORRIDOR SCC GTOWN L2-1,Seattle,98108,47.542276,-122.324533,['J1772']
Portland Ave and 31st St,Tacoma,98404,47.234632,-122.409949,['J1772']
S 39th Street,Tacoma,98418,47.221823,-122.443032,['J1772']
MB OF SPOKANE OUTSIDE 1,Liberty Lake,99019,47.67109,-117.112915,['J1772']
BMGF P2 STATION 6,Seattle,98109,47.623302,-122.345789,['J1772']
BMGF P1 STATION 3,Seattle,98109,47.623345,-122.345853,['J1772']
BMGF P1 STATION 5,Seattle,98109,47.623274,-122.345984,['J1772']
BMGF P1 STATION 4,Seattle,98109,47.623307,-122.345933,['J1772']
BMGF P2 STATION 8,Seattle,98109,47.623224,-122.345917,['J1772']
BMGF P2 STATION 7,Seattle,98109,47.62326,-122.345845,['J1772']
Stadium Place,Seattle,98134,47.5977415,-122.3329233,['J1772']
LAC SWIN LIBRAR LACSWIN LIBRARY,La Conner,98257,48.391957,-122.490724,['J1772']
Underwood Nelson Development,Snohomish,98296,47.81452428919832,-122.1108624898591,['J1772']
The Lyric,Seattle,98102,47.6206301,-122.3198568,['J1772']
DOL STATION A,Lakewood,98499,47.161364,-122.517389,['J1772']
DOL STATION B,Lakewood,98499,47.161377,-122.517325,['J1772']
COUPEVILLE COUPEVILLE #1,Coupeville,98239,48.219574,-122.689582,['J1772']
The Meyden,Bellevue,98004,47.6098443,-122.2024273,['J1772']
The 101,Kirkland,98033,47.6753316,-122.2057967,['J1772']
COEN NORTH STATION #2,Vancouver,98660,45.627364,-122.673345,['J1772']
COEN NORTH STATION #1,Vancouver,98660,45.627361,-122.673261,['J1772']
COEN NORTH STATION #3,Vancouver,98660,45.627365,-122.67312,['J1772']
"9610 Sandifur Parkway Pasco, WA 99301",Pasco,99301,46.277431,-119.216153,"['CHADEMO', 'J1772COMBO']"
Sprague,Sprague,99032,47.300106,-117.976097,"['CHADEMO', 'J1772COMBO']"
Hoot Owl Overnight Rental,Winthrop,98862,48.47916,-120.186565,['J1772']
PeaceHealth Parking Lot E,Vancouver,98664,45.61192514,-122.5897354,['J1772']
Juanita View,Kirkland,98034,47.7059359,-122.2063763,['J1772']
Crystal Mountain,Enumclaw,98022,46.938306,-121.472889,['J1772']
601 N Rochester Street,Tacoma,98406,47.255696,-122.5292482,['J1772']
799 E Harrison Street,Tacoma,98404,47.2294673,-122.420899,['J1772']
Rosalia,Rosalia,99170,47.23432,-117.370158,"['CHADEMO', 'J1772COMBO']"
SNOPUD POWERED MUEVE3105 #2,Everett,98201,47.980493,-122.197684,"['CHADEMO', 'J1772COMBO']"
SNOPUD POWERED MUEVE3105 #1,Everett,98201,47.980407,-122.197643,"['CHADEMO', 'J1772COMBO']"
ReVision Marine,Port Townsend,98368,48.10697,-122.779991,['J1772']
S 84th St and S Park Avenue,Tacoma,98444,47.18093,-122.44228,['J1772']
5112 N Pearl Street,Tacoma,98407,47.298756,-122.515766,['J1772']
COUPEVILLE COUPEVILLE #2,Coupeville,98239,48.219576,-122.689657,['J1772']
124 N Tacoma Avenue,Tacoma,98403,47.2652015,-122.4496292,['J1772']
Sunset Corporate Campus,Bellevue,98005,47.5806355,-122.1564536,['J1772']
Mercy 1Transport,Vancouver,98662,45.661573,-122.5636326,['J1772']
PIKE PLACE STALL 895 & 894,Seattle,98101,47.609487,-122.342908,['J1772']
Chevrolet of Everett,Everett,98203,47.931316,-122.219758,"['CHADEMO', 'J1772COMBO']"
LAWRENCE LOFTS LL COMMERCIAL,Seattle,98122,47.616857,-122.307818,['J1772']
2600 Elliott Garage,Seattle,98121,47.614387,-122.351622,['J1772']
WSSDA 225 COLLEGE NE,Lacey,98516,47.050128,-122.823353,['J1772']
REFLECTIONS RFEFLECTIONS 3,Redmond,98052,47.662861,-122.097803,['J1772']
Intercity Transit,Olympia,98507,47.045574,-122.857714,['J1772']
PORTCW PORTCWADMIN,Washougal,98671,45.578726,-122.379886,['J1772']
ADMIN BUILDING PUBLIC PARKING,Kennewick,99336,46.222377,-119.217259,['J1772']
2350 N 30th St,Tacoma,98403,47.274697,-122.468095,['J1772']
Olympic College Bremerton,Bremerton,98337,47.5732455,-122.6336963,['J1772']
Cowlitz PUD Main Office,Longview,98632,46.1315296,-122.9358643,['J1772']
Sno Falls - Credit Union,North Bend,98045,47.489755,-121.791949,['J1772']
Harborview Medical Center,Seattle,98104,47.605477,-122.323427,['J1772']
POULSBO STATION 2,Poulsbo,98370,47.744534,-122.63931,['J1772']
POULSBO STATION 1,Poulsbo,98370,47.744532,-122.639463,['J1772']
OLD SCHOOL PARK DARRINGTON 1GW,Darrington,98241,48.251621,-121.601383,['J1772']
Naches,Naches,98937,46.71653,-120.677423,"['CHADEMO', 'J1772', 'J1772COMBO']"
Riverton Copper Basin,Spokane,99202,47.672004,-117.386224,['J1772']
AG STATION STATION 2,Vancouver,98662,45.66201,-122.584186,['J1772']
AG STATION STATION 1,Vancouver,98662,45.662011,-122.584106,['J1772']
"3629 South D Street, Tacoma",Tacoma,98418,47.224977,-122.435165,['J1772']
Y.V.M.H. NORTH PARKING-2,Yakima,98902,46.59457,-120.546837,['J1772']
REI,Seattle,98109,47.62066,-122.32952,"['CHADEMO', 'J1772COMBO']"
King Plaza,Seattle,98118,47.538782,-122.282797,"['CHADEMO', 'J1772COMBO']"
Dupont Center - Ace Hardware,DuPont,98327,47.092582,-122.644253,['J1772COMBO']
Whole Foods Lynnwood,Lynnwood,98036,47.820256,-122.271361,['J1772COMBO']
Conoco,Ritzville,99169,47.118605,-118.365561,"['CHADEMO', 'J1772COMBO']"
Redmond Town Center,Redmond,98052,47.6715764,-122.1194606,"['CHADEMO', 'J1772COMBO']"
Interbay Business Center,Seattle,98119,47.63986,-122.377668,"['CHADEMO', 'J1772COMBO']"
LeMay - America's Car Museum,Tacoma,98421,47.234898,-122.429536,['J1772COMBO']
HILTON GARDEN STATION 1,Issaquah,98027,47.546017,-122.06528,['J1772']
Juanita Court,Kirkland,98034,47.7133,-122.209,['J1772']
AMZ SEA106-4,Bellevue,98004,47.619791,-122.19971,['J1772']
AMZ SEA106-3,Bellevue,98004,47.619784,-122.199758,['J1772']
"ARE-Seattle No. 12, LLC",Seattle,98109,47.25033,-122.18104,['J1772']
Tacoma Power Lot D EV Charging,Tacoma,98409,47.228157,-122.485043,['J1772']
Seabrook EV Chargers,Pacific Beach,98571,47.19404038977142,-124.1980829153442,['J1772']
South Service Center Pole Yard,Seattle,98134,47.56720941097377,-122.3302094155016,['J1772']
Hilton Seattle Airport,Seattle,98188,47.444398,-122.29516,['J1772']
The Hive,Spokane,99202,47.656426,-117.367743,"['J1772COMBO', 'TESLA']"
North East Community Center,Spokane,99207,47.693653,-117.374808,['J1772COMBO']
HOPEWORKS HOPEWORKS 2,Everett,98201,47.972937,-122.200839,['J1772']
Chehalis Commerce District,Chehalis,98532,46.6797271,-122.9770999,"['CHADEMO', 'J1772COMBO']"
ALLEY 111 CP1,Bellevue,98004,47.618104,-122.19222,['J1772']
ALLEY 111 CP2,Bellevue,98004,47.618059,-122.192221,['J1772']
ALLEY 111 CP3,Bellevue,98004,47.618012,-122.192224,['J1772']
ALLEY 111 CP4,Bellevue,98004,47.617957,-122.192223,['J1772']
ALLEY 111 CP5,Bellevue,98004,47.617904,-122.192223,['J1772']
ALLEY 111 CP6,Bellevue,98004,47.617862,-122.192221,['J1772']
ALLEY 111 CP7,Bellevue,98004,47.617821,-122.192223,['J1772']
ALLEY 111 CP8,Bellevue,98004,47.617771,-122.192224,['J1772']
SEA41 SEA41-7,Seattle,98121,47.616076,-122.339828,['J1772']
SEA41 SEA41-10,Seattle,98121,47.616069,-122.339836,['J1772']
SEA41 SEA41-9,Seattle,98121,47.616081,-122.339836,['J1772']
SEA41 SEA41-21,Seattle,98121,47.616062,-122.339797,['J1772']
SEA41 SEA41-22,Seattle,98121,47.616069,-122.339786,['J1772']
SEA41 SEA41-23,Seattle,98121,47.616069,-122.339818,['J1772']
SEA41 SEA41-17,Seattle,98121,47.616026,-122.339818,['J1772']
SEA41 SEA41-16,Seattle,98121,47.616069,-122.339882,['J1772']
SEA41 SEA41-24,Seattle,98121,47.616062,-122.339845,['J1772']
SEA41 SEA41-19,Seattle,98121,47.616055,-122.339829,['J1772']
SEA41 SEA41-20,Seattle,98121,47.616055,-122.33985,['J1772']
SEA41 SEA41-12,Seattle,98121,47.616071,-122.339854,['J1772']
SEA41 SEA41-11,Seattle,98121,47.616083,-122.33985,['J1772']
SEA41 SEA41-14,Seattle,98121,47.616082,-122.339821,['J1772']
SEA41 SEA41-15,Seattle,98121,47.616076,-122.339754,['J1772']
AMZ SEA42-17,Seattle,98119,47.616259,-122.338853,['J1772']
AMZ SEA42-15,Seattle,98119,47.616265,-122.338863,['J1772']
AMZ SEA42-16,Seattle,98119,47.616277,-122.338872,['J1772']
AMZ SEA42-18,Seattle,98119,47.616259,-122.338839,['J1772']
AMZ SEA42-13,Seattle,98119,47.616276,-122.338848,['J1772']
AMZ SEA42-12,Seattle,98119,47.616271,-122.338868,['J1772']
AMZ SEA42-14,Seattle,98119,47.61628,-122.338861,['J1772']
SEA41 SEA41-8,Seattle,98121,47.616076,-122.339844,['J1772']
SEA41 SEA41-13,Seattle,98121,47.61607,-122.339824,['J1772']
AMZ SEA40-7,Seattle,98121,47.615307,-122.338225,['J1772']
AMZ SEA40-9,Seattle,98121,47.615314,-122.338234,['J1772']
AMZ SEA40-13,Seattle,98121,47.61532,-122.338246,['J1772']
AMZ SEA40-11,Seattle,98121,47.615305,-122.338215,['J1772']
AMZ SEA40-10,Seattle,98121,47.615303,-122.338242,['J1772']
AMZ SEA40-8,Seattle,98121,47.615311,-122.338245,['J1772']
AMZ SEA40-12,Seattle,98121,47.615297,-122.338221,['J1772']
AMZ SEA44-5,Seattle,98121,47.616662,-122.340786,['J1772']
AMZ SEA44-7,Seattle,98121,47.616653,-122.340794,['J1772']
AMZ SEA44-6,Seattle,98121,47.616663,-122.340804,['J1772']
AMZ SEA44-9,Seattle,98121,47.616663,-122.340794,['J1772']
EDMONDSNISSAN CAMPBELL NORTH,Edmonds,98026,47.778256,-122.344832,"['CHADEMO', 'J1772COMBO']"
ASPECT ASPCT AT TOTEM,Kirkland,98034,47.7125,-122.17772,['J1772']
SPOKANE HYUNDAI STATION 2,Spokane Valley,99212,47.657317,-117.287492,['J1772']
SIA E GARAGE F.2 #2,Airway Heights,99224,47.625021,-117.539657,['J1772']
SIA E GARAGE F.2 #6,Airway Heights,99224,47.625087,-117.539968,['J1772']
SIA E GARAGE F.2 #4,Airway Heights,99224,47.625006,-117.539796,['J1772']
SIA E GARAGE F.2 #3,Airway Heights,99224,47.625021,-117.539667,['J1772']
SIA E GARAGE F.2 #5,Airway Heights,99224,47.625019,-117.539831,['J1772']
SIA E GARAGE F.2 #1,Airway Heights,99224,47.625122,-117.539614,['J1772']
Lumen Field Parking Garage,Seattle,98104,47.5926384626354,-122.330869270063,"['J1772', 'TESLA']"
800 Fifth Avenue Parking Garage,Seattle,98104,47.6054544002366,-122.330085418863,['J1772']
US Bank Center Garage,Seattle,98101,47.610826048907,-122.334346934116,['J1772']
University of Washington - Parking Area W40,Seattle,98105,47.6548806651459,-122.319211227533,['J1772']
University of Washington - Parking Lot N22,Seattle,98195,47.6560149395404,-122.305003488076,['J1772']
Union Bay Plaza,Seattle,98105,47.6619766883491,-122.293346008603,['J1772']
OLY CITY HALL OLY CITY HALL 1,Olympia,98501,47.04506,-122.89476,['J1772']
TAO FAWU FARM STATION 1,Everson,98247,48.89416,-122.281001,['J1772']
HOPEWORKS HOPEWORKS 3,Everett,98201,47.973226,-122.200753,"['CHADEMO', 'J1772COMBO']"
La Bella Vita Kitchen and Bar,Richland,99354,46.2925976863444,-119.274740824072,['J1772']
YAKAMART INC. STATION 1,Toppenish,98948,46.375435,-120.33262,['J1772']
3803 N 26th Street,Tacoma,98407,47.271112,-122.487932,['J1772']
BMR DEXTER DEXTER YARD-S1,Seattle,98109,47.625918,-122.342192,['J1772']
BMR DEXTER DEXTER YARD-S4,Seattle,98109,47.625918,-122.342192,['J1772']
VOLVO CAR USA SEATTLE DC1,Seattle,98134,47.5816,-122.334883,"['CHADEMO', 'J1772COMBO']"
VOLVO CAR USA SEATTLE DC2,Seattle,98134,47.581601,-122.334848,"['CHADEMO', 'J1772COMBO']"
VOLVO CAR USA SEATTLE DC3,Seattle,98134,47.5816,-122.33481,"['CHADEMO', 'J1772COMBO']"
VOLVO CAR USA SEATTLE DC4,Seattle,98134,47.581595,-122.334777,"['CHADEMO', 'J1772COMBO']"
NISSAN-EVERETT DC STATION 1,Everett,98204,47.902712,-122.246862,"['CHADEMO', 'J1772COMBO']"
BELLINGHAM CITY TAYLOR DOCK,Bellingham,98225,48.72532,-122.505152,['J1772']
The Lex,Tacoma,98402,47.2600301,-122.4438042,['J1772']
ESTATES AT COUG 2153,Issaquah,98027,47.531503,-122.072654,['J1772']
ESTATES AT COUG OFFICE 2,Issaquah,98027,47.530138,-122.070337,['J1772']
ESTATES AT COUG OFFICE1,Issaquah,98027,47.530096,-122.070319,['J1772']
Southcenter Plaza - Tesla Supercharger,Tukwila,98188,47.455407,-122.256023,['TESLA']
1800 Ninth Building,Seattle,98101,47.615249,-122.3332564,['J1772']
North Bend Premium Outlets,North Bend,98045,47.49132,-121.79308,"['CHADEMO', 'J1772', 'J1772COMBO']"
Olympic College Shelton,Shelton,98584,47.2297155,-123.1108409,['J1772']
DAVIS PARK STATION 1,Ridgefield,98642,45.816957,-122.74557,['J1772']
TOBELLINGHAM TOB 1,Bellingham,98229,48.754914,-122.459858,['J1772']
Water & Environmental Center,Walla Walla,99362,46.0781030999106,-118.273813752914,['J1772']
LODGES CHARGER JAIME'S OFFICE,Yakima,98908,46.58914,-120.603074,['J1772']
PORT OFFICE ADMINREARNORTH,Longview,98632,46.107148,-122.941863,['J1772']
MCC CHARGERS CPE250-1,Marysville,98270,48.052642,-122.178325,"['CHADEMO', 'J1772COMBO']"
